$GPGGA,000200.00,4047.52461442,N,00238.53523249,W,1,05,2.87,+0.00,M,00.000,M,,*5A
$GPVTG,324.69,T,,M,060.538,N,112.116,K,A*3B
$GPGGA,000201.00,4047.52461442,N,00238.53523249,W,1,05,2.87,+0.00,M,00.000,M,,*5B
$GPVTG,324.69,T,,M,060.538,N,112.116,K,A*3B
$GPGGA,000202.00,4047.52461442,N,00238.53523249,W,1,05,2.87,+0.00,M,00.000,M,,*58
$GPVTG,324.69,T,,M,060.538,N,112.116,K,A*3B
$GPGGA,000203.00,4047.52461442,N,00238.53523249,W,1,05,2.87,+0.00,M,00.000,M,,*59
$GPVTG,324.69,T,,M,060.538,N,112.116,K,A*3B
$GPGGA,000204.00,4047.52461442,N,00238.53523249,W,1,05,2.87,+0.00,M,00.000,M,,*5E
$GPVTG,324.69,T,,M,060.538,N,112.116,K,A*3B
$GPGGA,000205.00,4047.52461442,N,00238.53523249,W,1,05,2.87,+0.00,M,00.000,M,,*5F
$GPVTG,324.69,T,,M,060.538,N,112.116,K,A*3B
$GPGGA,000206.00,4047.52461442,N,00238.53523249,W,1,05,2.87,+0.00,M,00.000,M,,*5C
$GPVTG,324.69,T,,M,060.538,N,112.116,K,A*3B
$GPGGA,000207.00,4047.52461442,N,00238.53523249,W,1,05,2.87,+0.00,M,00.000,M,,*5D
$GPVTG,324.69,T,,M,060.538,N,112.116,K,A*3B
$GPGGA,000208.00,4047.52461442,N,00238.53523249,W,1,05,2.87,+0.00,M,00.000,M,,*52
$GPVTG,324.69,T,,M,060.538,N,112.116,K,A*3B
$GPGGA,000209.00,4047.52461442,N,00238.53523249,W,1,05,2.87,+0.00,M,00.000,M,,*53
$GPVTG,324.69,T,,M,060.538,N,112.116,K,A*3B
$GPGGA,000210.00,4047.52461442,N,00238.53523249,W,1,05,2.87,+0.00,M,00.000,M,,*5B
$GPVTG,324.69,T,,M,060.538,N,112.116,K,A*3B
$GPGGA,000211.00,4047.52461442,N,00238.53523249,W,1,05,2.87,+0.00,M,00.000,M,,*5A
$GPVTG,324.69,T,,M,060.538,N,112.116,K,A*3B
$GPGGA,000212.00,4047.52461442,N,00238.53523249,W,1,05,2.87,+0.00,M,00.000,M,,*59
$GPVTG,324.69,T,,M,060.538,N,112.116,K,A*3B
$GPGGA,000213.00,4047.52461442,N,00238.53523249,W,1,05,2.87,+0.00,M,00.000,M,,*58
$GPVTG,324.69,T,,M,060.538,N,112.116,K,A*3B
$GPGGA,000214.00,4047.52461442,N,00238.53523249,W,1,05,2.87,+0.00,M,00.000,M,,*5F
$GPVTG,324.69,T,,M,060.538,N,112.116,K,A*3B
$GPGGA,000215.00,4047.52461442,N,00238.53523249,W,1,05,2.87,+0.00,M,00.000,M,,*5E
$GPVTG,324.69,T,,M,060.538,N,112.116,K,A*3B
$GPGGA,000216.00,4047.52461442,N,00238.53523249,W,1,05,2.87,+0.00,M,00.000,M,,*5D
$GPVTG,324.69,T,,M,060.538,N,112.116,K,A*3B
$GPGGA,000217.00,4047.52461442,N,00238.53523249,W,1,05,2.87,+0.00,M,00.000,M,,*5C
$GPVTG,324.69,T,,M,060.538,N,112.116,K,A*3B
$GPGGA,000218.00,4047.52461442,N,00238.53523249,W,1,05,2.87,+0.00,M,00.000,M,,*53
$GPVTG,324.69,T,,M,060.538,N,112.116,K,A*3B
$GPGGA,000219.00,4047.52461442,N,00238.53523249,W,1,05,2.87,+0.00,M,00.000,M,,*52
$GPVTG,324.69,T,,M,060.538,N,112.116,K,A*3B
$GPGGA,000220.00,4047.52461442,N,00238.53523249,W,1,05,2.87,+0.00,M,00.000,M,,*58
$GPVTG,324.69,T,,M,060.538,N,112.116,K,A*3B
$GPGGA,000221.00,4047.52461442,N,00238.53523249,W,1,05,2.87,+0.00,M,00.000,M,,*59
$GPVTG,324.69,T,,M,060.538,N,112.116,K,A*3B
$GPGGA,000222.00,4047.52461442,N,00238.53523249,W,1,05,2.87,+0.00,M,00.000,M,,*5A
$GPVTG,324.69,T,,M,060.538,N,112.116,K,A*3B
$GPGGA,000223.00,4047.52461442,N,00238.53523249,W,1,05,2.87,+0.00,M,00.000,M,,*5B
$GPVTG,324.69,T,,M,060.538,N,112.116,K,A*3B
$GPGGA,000224.00,4047.52461442,N,00238.53523249,W,1,05,2.87,+0.00,M,00.000,M,,*5C
$GPVTG,324.69,T,,M,060.538,N,112.116,K,A*3B
$GPGGA,000225.00,4047.52461442,N,00238.53523249,W,1,05,2.87,+0.00,M,00.000,M,,*5D
$GPVTG,324.69,T,,M,060.538,N,112.116,K,A*3B
$GPGGA,000226.00,4047.52461442,N,00238.53523249,W,1,05,2.87,+0.00,M,00.000,M,,*5E
$GPVTG,324.69,T,,M,060.538,N,112.116,K,A*3B
$GPGGA,000227.00,4047.52461442,N,00238.53523249,W,1,05,2.87,+0.00,M,00.000,M,,*5F
$GPVTG,324.69,T,,M,060.538,N,112.116,K,A*3B
$GPGGA,000228.00,4047.52461442,N,00238.53523249,W,1,05,2.87,+0.00,M,00.000,M,,*50
$GPVTG,324.69,T,,M,060.538,N,112.116,K,A*3B
$GPGGA,000229.00,4047.52461442,N,00238.53523249,W,1,05,2.87,+0.00,M,00.000,M,,*51
$GPVTG,324.69,T,,M,060.538,N,112.116,K,A*3B
$GPGGA,000230.00,4047.52461442,N,00238.53523249,W,1,05,2.87,+0.00,M,00.000,M,,*59
$GPVTG,324.69,T,,M,060.538,N,112.116,K,A*3B
$GPGGA,000231.00,4047.52461442,N,00238.53523249,W,1,05,2.87,+0.00,M,00.000,M,,*58
$GPVTG,324.69,T,,M,060.538,N,112.116,K,A*3B
$GPGGA,000232.00,4047.52461442,N,00238.53523249,W,1,05,2.87,+0.00,M,00.000,M,,*5B
$GPVTG,324.69,T,,M,060.538,N,112.116,K,A*3B
$GPGGA,000233.00,4047.52461442,N,00238.53523249,W,1,05,2.87,+0.00,M,00.000,M,,*5A
$GPVTG,324.69,T,,M,060.538,N,112.116,K,A*3B
$GPGGA,000234.00,4047.52461442,N,00238.53523249,W,1,05,2.87,+0.00,M,00.000,M,,*5D
$GPVTG,324.69,T,,M,060.538,N,112.116,K,A*3B
$GPGGA,000235.00,4047.52461442,N,00238.53523249,W,1,05,2.87,+0.00,M,00.000,M,,*5C
$GPVTG,324.69,T,,M,060.538,N,112.116,K,A*3B
$GPGGA,000236.00,4047.52461442,N,00238.53523249,W,1,05,2.87,+0.00,M,00.000,M,,*5F
$GPVTG,324.69,T,,M,060.538,N,112.116,K,A*3B
$GPGGA,000237.00,4047.52461442,N,00238.53523249,W,1,05,2.87,+0.00,M,00.000,M,,*5E
$GPVTG,324.69,T,,M,060.538,N,112.116,K,A*3B
$GPGGA,000238.00,4047.52461442,N,00238.53523249,W,1,05,2.87,+0.00,M,00.000,M,,*51
$GPVTG,324.69,T,,M,060.538,N,112.116,K,A*3B
$GPGGA,000239.00,4047.52461442,N,00238.53523249,W,1,05,2.87,+0.00,M,00.000,M,,*50
$GPVTG,324.69,T,,M,060.538,N,112.116,K,A*3B
$GPGGA,000240.00,4047.52461442,N,00238.53523249,W,1,05,2.87,+0.00,M,00.000,M,,*5E
$GPVTG,324.69,T,,M,060.538,N,112.116,K,A*3B
$GPGGA,000241.00,4047.52461442,N,00238.53523249,W,1,05,2.87,+0.00,M,00.000,M,,*5F
$GPVTG,324.69,T,,M,060.538,N,112.116,K,A*3B
$GPGGA,000242.00,4047.52461442,N,00238.53523249,W,1,05,2.87,+0.00,M,00.000,M,,*5C
$GPVTG,324.69,T,,M,060.538,N,112.116,K,A*3B
$GPGGA,000243.00,4047.52461442,N,00238.53523249,W,1,05,2.87,+0.00,M,00.000,M,,*5D
$GPVTG,324.69,T,,M,060.538,N,112.116,K,A*3B
$GPGGA,000244.00,4047.52461442,N,00238.53523249,W,1,05,2.87,+0.00,M,00.000,M,,*5A
$GPVTG,324.69,T,,M,060.538,N,112.116,K,A*3B
$GPGGA,000245.00,4047.52461442,N,00238.53523249,W,1,05,2.87,+0.00,M,00.000,M,,*5B
$GPVTG,324.69,T,,M,060.538,N,112.116,K,A*3B
$GPGGA,000246.00,4047.52461442,N,00238.53523249,W,1,05,2.87,+0.00,M,00.000,M,,*58
$GPVTG,324.69,T,,M,060.538,N,112.116,K,A*3B
$GPGGA,000247.00,4047.52461442,N,00238.53523249,W,1,05,2.87,+0.00,M,00.000,M,,*59
$GPVTG,324.69,T,,M,060.538,N,112.116,K,A*3B
$GPGGA,000248.00,4047.52461442,N,00238.53523249,W,1,05,2.87,+0.00,M,00.000,M,,*56
$GPVTG,324.69,T,,M,060.538,N,112.116,K,A*3B
$GPGGA,000249.00,4047.52461442,N,00238.53523249,W,1,05,2.87,+0.00,M,00.000,M,,*57
$GPVTG,324.69,T,,M,060.538,N,112.116,K,A*3B
$GPGGA,000250.00,4047.52461442,N,00238.53523249,W,1,05,2.87,+0.00,M,00.000,M,,*5F
$GPVTG,324.69,T,,M,060.538,N,112.116,K,A*3B
$GPGGA,000251.00,4047.52461442,N,00238.53523249,W,1,05,2.87,+0.00,M,00.000,M,,*5E
$GPVTG,324.69,T,,M,060.538,N,112.116,K,A*3B
$GPGGA,000252.00,4047.52461442,N,00238.53523249,W,1,05,2.87,+0.00,M,00.000,M,,*5D
$GPVTG,324.69,T,,M,060.538,N,112.116,K,A*3B
$GPGGA,000253.00,4047.52461442,N,00238.53523249,W,1,05,2.87,+0.00,M,00.000,M,,*5C
$GPVTG,324.69,T,,M,060.538,N,112.116,K,A*3B
$GPGGA,000254.00,4047.52461442,N,00238.53523249,W,1,05,2.87,+0.00,M,00.000,M,,*5B
$GPVTG,324.69,T,,M,060.538,N,112.116,K,A*3B
$GPGGA,000255.00,4047.52461442,N,00238.53523249,W,1,05,2.87,+0.00,M,00.000,M,,*5A
$GPVTG,324.69,T,,M,060.538,N,112.116,K,A*3B
$GPGGA,000256.00,4047.52461442,N,00238.53523249,W,1,05,2.87,+0.00,M,00.000,M,,*59
$GPVTG,324.69,T,,M,060.538,N,112.116,K,A*3B
$GPGGA,000257.00,4047.52461442,N,00238.53523249,W,1,05,2.87,+0.00,M,00.000,M,,*58
$GPVTG,324.69,T,,M,060.538,N,112.116,K,A*3B
$GPGGA,000258.00,4047.52461442,N,00238.53523249,W,1,05,2.87,+0.00,M,00.000,M,,*57
$GPVTG,324.69,T,,M,060.538,N,112.116,K,A*3B
$GPGGA,000259.00,4047.52461442,N,00238.53523249,W,1,05,2.87,+0.00,M,00.000,M,,*56
$GPVTG,324.69,T,,M,060.538,N,112.116,K,A*3B
$GPGGA,000300.00,4047.52461442,N,00238.53523249,W,1,05,2.87,+0.00,M,00.000,M,,*5B
$GPVTG,324.69,T,,M,060.538,N,112.116,K,A*3B
$GPGGA,000301.00,4047.52461442,N,00238.53523249,W,1,05,2.87,+0.00,M,00.000,M,,*5A
$GPVTG,324.69,T,,M,060.538,N,112.116,K,A*3B
$GPGGA,000302.00,4047.52461442,N,00238.53523249,W,1,05,2.87,+0.00,M,00.000,M,,*59
$GPVTG,324.69,T,,M,060.538,N,112.116,K,A*3B
$GPGGA,000303.00,4047.52461442,N,00238.53523249,W,1,05,2.87,+0.00,M,00.000,M,,*58
$GPVTG,324.69,T,,M,060.538,N,112.116,K,A*3B
$GPGGA,000304.00,4047.52461442,N,00238.53523249,W,1,05,2.87,+0.00,M,00.000,M,,*5F
$GPVTG,324.69,T,,M,060.538,N,112.116,K,A*3B
$GPGGA,000305.00,4047.52461442,N,00238.53523249,W,1,05,2.87,+0.00,M,00.000,M,,*5E
$GPVTG,324.69,T,,M,060.538,N,112.116,K,A*3B
$GPGGA,000306.00,4047.52461442,N,00238.53523249,W,1,05,2.87,+0.00,M,00.000,M,,*5D
$GPVTG,324.69,T,,M,060.538,N,112.116,K,A*3B
$GPGGA,000307.00,4047.52461442,N,00238.53523249,W,1,05,2.87,+0.00,M,00.000,M,,*5C
$GPVTG,324.69,T,,M,060.538,N,112.116,K,A*3B
$GPGGA,000308.00,4047.52461442,N,00238.53523249,W,1,05,2.87,+0.00,M,00.000,M,,*53
$GPVTG,324.69,T,,M,060.538,N,112.116,K,A*3B
$GPGGA,000309.00,4047.52461442,N,00238.53523249,W,1,05,2.87,+0.00,M,00.000,M,,*52
$GPVTG,324.69,T,,M,060.538,N,112.116,K,A*3B
$GPGGA,000310.00,4047.52461442,N,00238.53523249,W,1,05,2.87,+0.00,M,00.000,M,,*5A
$GPVTG,324.69,T,,M,060.538,N,112.116,K,A*3B
$GPGGA,000311.00,4047.52461442,N,00238.53523249,W,1,05,2.87,+0.00,M,00.000,M,,*5B
$GPVTG,324.69,T,,M,060.538,N,112.116,K,A*3B
$GPGGA,000312.00,4047.52461442,N,00238.53523249,W,1,05,2.87,+0.00,M,00.000,M,,*58
$GPVTG,324.69,T,,M,060.538,N,112.116,K,A*3B
$GPGGA,000313.00,4047.52461442,N,00238.53523249,W,1,05,2.87,+0.00,M,00.000,M,,*59
$GPVTG,324.69,T,,M,060.538,N,112.116,K,A*3B
$GPGGA,000314.00,4047.52461442,N,00238.53523249,W,1,05,2.87,+0.00,M,00.000,M,,*5E
$GPVTG,324.69,T,,M,060.538,N,112.116,K,A*3B
$GPGGA,000315.00,4047.52461442,N,00238.53523249,W,1,05,2.87,+0.00,M,00.000,M,,*5F
$GPVTG,324.69,T,,M,060.538,N,112.116,K,A*3B
$GPGGA,000316.00,4047.52461442,N,00238.53523249,W,1,05,2.87,+0.00,M,00.000,M,,*5C
$GPVTG,324.69,T,,M,060.538,N,112.116,K,A*3B
$GPGGA,000317.00,4047.52461442,N,00238.53523249,W,1,05,2.87,+0.00,M,00.000,M,,*5D
$GPVTG,324.69,T,,M,060.538,N,112.116,K,A*3B
$GPGGA,000318.00,4047.52461442,N,00238.53523249,W,1,05,2.87,+0.00,M,00.000,M,,*52
$GPVTG,324.69,T,,M,060.538,N,112.116,K,A*3B
$GPGGA,000319.00,4047.52461442,N,00238.53523249,W,1,05,2.87,+0.00,M,00.000,M,,*53
$GPVTG,324.69,T,,M,060.538,N,112.116,K,A*3B
$GPGGA,000320.00,4047.50176283,N,00238.49278109,W,1,05,2.87,+0.00,M,00.000,M,,*56
$GPVTG,324.69,T,,M,142.241,N,263.431,K,A*36
$GPGGA,000321.00,4047.46373048,N,00238.42213051,W,1,05,2.87,+0.00,M,00.000,M,,*58
$GPVTG,324.69,T,,M,236.731,N,438.427,K,A*3B
$GPGGA,000322.00,4047.41665251,N,00238.33463450,W,1,05,2.87,+0.00,M,00.000,M,,*56
$GPVTG,324.71,T,,M,293.131,N,542.879,K,A*30
$GPGGA,000323.00,4047.37314367,N,00238.24236721,W,1,05,2.87,+0.00,M,00.000,M,,*54
$GPVTG,328.19,T,,M,296.910,N,549.877,K,A*39
$GPGGA,000324.00,4047.33038630,N,00238.14946776,W,1,05,2.87,+0.00,M,00.000,M,,*50
$GPVTG,328.81,T,,M,296.973,N,549.994,K,A*31
$GPGGA,000325.00,4047.28767567,N,00238.05653227,W,1,05,2.87,+0.00,M,00.000,M,,*5D
$GPVTG,328.85,T,,M,296.972,N,549.993,K,A*33
$GPGGA,000326.00,4047.24591209,N,00237.96285553,W,1,05,2.87,+0.00,M,00.000,M,,*58
$GPVTG,329.61,T,,M,296.973,N,549.994,K,A*3E
$GPGGA,000327.00,4047.20342001,N,00237.86977361,W,1,05,2.87,+0.00,M,00.000,M,,*5F
$GPVTG,329.02,T,,M,296.914,N,549.885,K,A*3B
$GPGGA,000328.00,4047.15701508,N,00237.77995924,W,1,05,2.87,+0.00,M,00.000,M,,*50
$GPVTG,325.80,T,,M,296.973,N,549.994,K,A*3D
$GPGGA,000329.00,4047.11059106,N,00237.69016298,W,1,05,2.87,+0.00,M,00.000,M,,*54
$GPVTG,325.79,T,,M,296.973,N,549.994,K,A*3B
$GPGGA,000330.00,4047.06196572,N,00237.60242032,W,1,05,2.87,+0.00,M,00.000,M,,*57
$GPVTG,323.91,T,,M,296.945,N,549.941,K,A*36
$GPGGA,000331.00,4047.00580134,N,00237.52290599,W,1,05,2.87,+0.00,M,00.000,M,,*5F
$GPVTG,317.11,T,,M,296.835,N,549.739,K,A*3E
$GPGGA,000332.00,4046.95215788,N,00237.44643924,W,1,05,2.87,+0.00,M,00.000,M,,*5C
$GPVTG,317.31,T,,M,284.560,N,527.005,K,A*32
$GPGGA,000333.00,4046.91029306,N,00237.39350328,W,1,05,2.87,+0.00,M,00.000,M,,*5D
$GPVTG,313.88,T,,M,208.908,N,386.897,K,A*3C
$GPGGA,000334.00,4046.88606153,N,00237.36640666,W,1,05,2.87,+0.00,M,00.000,M,,*5F
$GPVTG,310.38,T,,M,114.416,N,211.899,K,A*39
$GPGGA,000335.00,4046.87199630,N,00237.36005857,W,1,05,2.87,+0.00,M,00.000,M,,*59
$GPVTG,288.95,T,,M,053.498,N,099.078,K,A*3F
$GPGGA,000336.00,4046.84917856,N,00237.37106441,W,1,05,2.87,+0.00,M,00.000,M,,*51
$GPVTG,069.88,T,,M,087.435,N,161.930,K,A*33
$GPGGA,000337.00,4046.80342816,N,00237.39606277,W,1,05,2.87,+0.00,M,00.000,M,,*50
$GPVTG,067.46,T,,M,178.230,N,330.081,K,A*38
$GPGGA,000338.00,4046.73781792,N,00237.44149762,W,1,05,2.87,+0.00,M,00.000,M,,*5C
$GPVTG,062.25,T,,M,266.753,N,494.027,K,A*31
$GPGGA,000339.00,4046.66431389,N,00237.49069387,W,1,05,2.87,+0.00,M,00.000,M,,*5E
$GPVTG,063.05,T,,M,296.705,N,549.498,K,A*3F
$GPGGA,000340.00,4046.59131781,N,00237.53749362,W,1,05,2.87,+0.00,M,00.000,M,,*50
$GPVTG,064.03,T,,M,292.148,N,541.059,K,A*34
$GPGGA,000341.00,4046.53716379,N,00237.58374271,W,1,05,2.87,+0.00,M,00.000,M,,*59
$GPVTG,057.02,T,,M,232.289,N,430.200,K,A*38
$GPGGA,000342.00,4046.50359354,N,00237.61271203,W,1,05,2.87,+0.00,M,00.000,M,,*52
$GPVTG,056.74,T,,M,144.445,N,267.512,K,A*3C
$GPGGA,000343.00,4046.47228534,N,00237.62898298,W,1,05,2.87,+0.00,M,00.000,M,,*5E
$GPVTG,068.45,T,,M,121.110,N,224.295,K,A*3A
$GPGGA,000344.00,4046.42279709,N,00237.64965690,W,1,05,2.87,+0.00,M,00.000,M,,*5D
$GPVTG,072.39,T,,M,186.807,N,345.967,K,A*38
$GPGGA,000345.00,4046.35062289,N,00237.67979533,W,1,05,2.87,+0.00,M,00.000,M,,*5D
$GPVTG,072.40,T,,M,272.431,N,504.543,K,A*3E
$GPGGA,000346.00,4046.27184271,N,00237.71186762,W,1,05,2.87,+0.00,M,00.000,M,,*5A
$GPVTG,072.81,T,,M,296.692,N,549.474,K,A*3E
$GPGGA,000347.00,4046.20067534,N,00237.73986906,W,1,05,2.87,+0.00,M,00.000,M,,*50
$GPVTG,073.36,T,,M,267.249,N,494.944,K,A*30
$GPGGA,000348.00,4046.15302808,N,00237.75861566,W,1,05,2.87,+0.00,M,00.000,M,,*5F
$GPVTG,073.36,T,,M,178.925,N,331.370,K,A*39
$GPGGA,000349.00,4046.13076278,N,00237.76737569,W,1,05,2.87,+0.00,M,00.000,M,,*55
$GPVTG,073.36,T,,M,083.611,N,154.847,K,A*3A
$GPGGA,000350.00,4046.13076278,N,00237.76737569,W,1,05,2.87,+0.00,M,00.000,M,,*5D
$GPVTG,073.36,T,,M,083.611,N,154.847,K,A*3A
$GPGGA,000351.00,4046.13076278,N,00237.76737569,W,1,05,2.87,+0.00,M,00.000,M,,*5C
$GPVTG,073.36,T,,M,083.611,N,154.847,K,A*3A
$GPGGA,000352.00,4046.13076278,N,00237.76737569,W,1,05,2.87,+0.00,M,00.000,M,,*5F
$GPVTG,073.36,T,,M,083.611,N,154.847,K,A*3A
$GPGGA,000353.00,4046.13076278,N,00237.76737569,W,1,05,2.87,+0.00,M,00.000,M,,*5E
$GPVTG,073.36,T,,M,083.611,N,154.847,K,A*3A
$GPGGA,000354.00,4046.13076278,N,00237.76737569,W,1,05,2.87,+0.00,M,00.000,M,,*59
$GPVTG,073.36,T,,M,083.611,N,154.847,K,A*3A
$GPGGA,000355.00,4046.13076278,N,00237.76737569,W,1,05,2.87,+0.00,M,00.000,M,,*58
$GPVTG,073.36,T,,M,083.611,N,154.847,K,A*3A
