$GPGGA,000200.00,4049.63210322,N,00240.33959421,W,1,05,2.87,+0.00,M,00.000,M,,*57
$GPVTG,302.03,T,,M,030.118,N,055.779,K,A*3D
$GPGGA,000201.00,4049.63210322,N,00240.33959421,W,1,05,2.87,+0.00,M,00.000,M,,*56
$GPVTG,302.03,T,,M,030.118,N,055.779,K,A*3D
$GPGGA,000202.00,4049.63210322,N,00240.33959421,W,1,05,2.87,+0.00,M,00.000,M,,*55
$GPVTG,302.03,T,,M,030.118,N,055.779,K,A*3D
$GPGGA,000203.00,4049.63210322,N,00240.33959421,W,1,05,2.87,+0.00,M,00.000,M,,*54
$GPVTG,302.03,T,,M,030.118,N,055.779,K,A*3D
$GPGGA,000204.00,4049.63210322,N,00240.33959421,W,1,05,2.87,+0.00,M,00.000,M,,*53
$GPVTG,302.03,T,,M,030.118,N,055.779,K,A*3D
$GPGGA,000205.00,4049.63210322,N,00240.33959421,W,1,05,2.87,+0.00,M,00.000,M,,*52
$GPVTG,302.03,T,,M,030.118,N,055.779,K,A*3D
$GPGGA,000206.00,4049.63210322,N,00240.33959421,W,1,05,2.87,+0.00,M,00.000,M,,*51
$GPVTG,302.03,T,,M,030.118,N,055.779,K,A*3D
$GPGGA,000207.00,4049.63210322,N,00240.33959421,W,1,05,2.87,+0.00,M,00.000,M,,*50
$GPVTG,302.03,T,,M,030.118,N,055.779,K,A*3D
$GPGGA,000208.00,4049.63210322,N,00240.33959421,W,1,05,2.87,+0.00,M,00.000,M,,*5F
$GPVTG,302.03,T,,M,030.118,N,055.779,K,A*3D
$GPGGA,000209.00,4049.63210322,N,00240.33959421,W,1,05,2.87,+0.00,M,00.000,M,,*5E
$GPVTG,302.03,T,,M,030.118,N,055.779,K,A*3D
$GPGGA,000210.00,4049.63210322,N,00240.33959421,W,1,05,2.87,+0.00,M,00.000,M,,*56
$GPVTG,302.03,T,,M,030.118,N,055.779,K,A*3D
$GPGGA,000211.00,4049.63210322,N,00240.33959421,W,1,05,2.87,+0.00,M,00.000,M,,*57
$GPVTG,302.03,T,,M,030.118,N,055.779,K,A*3D
$GPGGA,000212.00,4049.63210322,N,00240.33959421,W,1,05,2.87,+0.00,M,00.000,M,,*54
$GPVTG,302.03,T,,M,030.118,N,055.779,K,A*3D
$GPGGA,000213.00,4049.63210322,N,00240.33959421,W,1,05,2.87,+0.00,M,00.000,M,,*55
$GPVTG,302.03,T,,M,030.118,N,055.779,K,A*3D
$GPGGA,000214.00,4049.63210322,N,00240.33959421,W,1,05,2.87,+0.00,M,00.000,M,,*52
$GPVTG,302.03,T,,M,030.118,N,055.779,K,A*3D
$GPGGA,000215.00,4049.63210322,N,00240.33959421,W,1,05,2.87,+0.00,M,00.000,M,,*53
$GPVTG,302.03,T,,M,030.118,N,055.779,K,A*3D
$GPGGA,000216.00,4049.63210322,N,00240.33959421,W,1,05,2.87,+0.00,M,00.000,M,,*50
$GPVTG,302.03,T,,M,030.118,N,055.779,K,A*3D
$GPGGA,000217.00,4049.63210322,N,00240.33959421,W,1,05,2.87,+0.00,M,00.000,M,,*51
$GPVTG,302.03,T,,M,030.118,N,055.779,K,A*3D
$GPGGA,000218.00,4049.63210322,N,00240.33959421,W,1,05,2.87,+0.00,M,00.000,M,,*5E
$GPVTG,302.03,T,,M,030.118,N,055.779,K,A*3D
$GPGGA,000219.00,4049.63210322,N,00240.33959421,W,1,05,2.87,+0.00,M,00.000,M,,*5F
$GPVTG,302.03,T,,M,030.118,N,055.779,K,A*3D
$GPGGA,000220.00,4049.63210322,N,00240.33959421,W,1,05,2.87,+0.00,M,00.000,M,,*55
$GPVTG,302.03,T,,M,030.118,N,055.779,K,A*3D
$GPGGA,000221.00,4049.63210322,N,00240.33959421,W,1,05,2.87,+0.00,M,00.000,M,,*54
$GPVTG,302.03,T,,M,030.118,N,055.779,K,A*3D
$GPGGA,000222.00,4049.63210322,N,00240.33959421,W,1,05,2.87,+0.00,M,00.000,M,,*57
$GPVTG,302.03,T,,M,030.118,N,055.779,K,A*3D
$GPGGA,000223.00,4049.63210322,N,00240.33959421,W,1,05,2.87,+0.00,M,00.000,M,,*56
$GPVTG,302.03,T,,M,030.118,N,055.779,K,A*3D
$GPGGA,000224.00,4049.63210322,N,00240.33959421,W,1,05,2.87,+0.00,M,00.000,M,,*51
$GPVTG,302.03,T,,M,030.118,N,055.779,K,A*3D
$GPGGA,000225.00,4049.63210322,N,00240.33959421,W,1,05,2.87,+0.00,M,00.000,M,,*50
$GPVTG,302.03,T,,M,030.118,N,055.779,K,A*3D
$GPGGA,000226.00,4049.63210322,N,00240.33959421,W,1,05,2.87,+0.00,M,00.000,M,,*53
$GPVTG,302.03,T,,M,030.118,N,055.779,K,A*3D
$GPGGA,000227.00,4049.63210322,N,00240.33959421,W,1,05,2.87,+0.00,M,00.000,M,,*52
$GPVTG,302.03,T,,M,030.118,N,055.779,K,A*3D
$GPGGA,000228.00,4049.63210322,N,00240.33959421,W,1,05,2.87,+0.00,M,00.000,M,,*5D
$GPVTG,302.03,T,,M,030.118,N,055.779,K,A*3D
$GPGGA,000229.00,4049.63210322,N,00240.33959421,W,1,05,2.87,+0.00,M,00.000,M,,*5C
$GPVTG,302.03,T,,M,030.118,N,055.779,K,A*3D
$GPGGA,000230.00,4049.63210322,N,00240.33959421,W,1,05,2.87,+0.00,M,00.000,M,,*54
$GPVTG,302.03,T,,M,030.118,N,055.779,K,A*3D
$GPGGA,000231.00,4049.63210322,N,00240.33959421,W,1,05,2.87,+0.00,M,00.000,M,,*55
$GPVTG,302.03,T,,M,030.118,N,055.779,K,A*3D
$GPGGA,000232.00,4049.63210322,N,00240.33959421,W,1,05,2.87,+0.00,M,00.000,M,,*56
$GPVTG,302.03,T,,M,030.118,N,055.779,K,A*3D
$GPGGA,000233.00,4049.63210322,N,00240.33959421,W,1,05,2.87,+0.00,M,00.000,M,,*57
$GPVTG,302.03,T,,M,030.118,N,055.779,K,A*3D
$GPGGA,000234.00,4049.63210322,N,00240.33959421,W,1,05,2.87,+0.00,M,00.000,M,,*50
$GPVTG,302.03,T,,M,030.118,N,055.779,K,A*3D
$GPGGA,000235.00,4049.63210322,N,00240.33959421,W,1,05,2.87,+0.00,M,00.000,M,,*51
$GPVTG,302.03,T,,M,030.118,N,055.779,K,A*3D
$GPGGA,000236.00,4049.63210322,N,00240.33959421,W,1,05,2.87,+0.00,M,00.000,M,,*52
$GPVTG,302.03,T,,M,030.118,N,055.779,K,A*3D
$GPGGA,000237.00,4049.63210322,N,00240.33959421,W,1,05,2.87,+0.00,M,00.000,M,,*53
$GPVTG,302.03,T,,M,030.118,N,055.779,K,A*3D
$GPGGA,000238.00,4049.63210322,N,00240.33959421,W,1,05,2.87,+0.00,M,00.000,M,,*5C
$GPVTG,302.03,T,,M,030.118,N,055.779,K,A*3D
$GPGGA,000239.00,4049.63210322,N,00240.33959421,W,1,05,2.87,+0.00,M,00.000,M,,*5D
$GPVTG,302.03,T,,M,030.118,N,055.779,K,A*3D
$GPGGA,000240.00,4049.63210322,N,00240.33959421,W,1,05,2.87,+0.00,M,00.000,M,,*53
$GPVTG,302.03,T,,M,030.118,N,055.779,K,A*3D
$GPGGA,000241.00,4049.63210322,N,00240.33959421,W,1,05,2.87,+0.00,M,00.000,M,,*52
$GPVTG,302.03,T,,M,030.118,N,055.779,K,A*3D
$GPGGA,000242.00,4049.63210322,N,00240.33959421,W,1,05,2.87,+0.00,M,00.000,M,,*51
$GPVTG,302.03,T,,M,030.118,N,055.779,K,A*3D
$GPGGA,000243.00,4049.63210322,N,00240.33959421,W,1,05,2.87,+0.00,M,00.000,M,,*50
$GPVTG,302.03,T,,M,030.118,N,055.779,K,A*3D
$GPGGA,000244.00,4049.63210322,N,00240.33959421,W,1,05,2.87,+0.00,M,00.000,M,,*57
$GPVTG,302.03,T,,M,030.118,N,055.779,K,A*3D
$GPGGA,000245.00,4049.63210322,N,00240.33959421,W,1,05,2.87,+0.00,M,00.000,M,,*56
$GPVTG,302.03,T,,M,030.118,N,055.779,K,A*3D
$GPGGA,000246.00,4049.63210322,N,00240.33959421,W,1,05,2.87,+0.00,M,00.000,M,,*55
$GPVTG,302.03,T,,M,030.118,N,055.779,K,A*3D
$GPGGA,000247.00,4049.63210322,N,00240.33959421,W,1,05,2.87,+0.00,M,00.000,M,,*54
$GPVTG,302.03,T,,M,030.118,N,055.779,K,A*3D
$GPGGA,000248.00,4049.63210322,N,00240.33959421,W,1,05,2.87,+0.00,M,00.000,M,,*5B
$GPVTG,302.03,T,,M,030.118,N,055.779,K,A*3D
$GPGGA,000249.00,4049.63210322,N,00240.33959421,W,1,05,2.87,+0.00,M,00.000,M,,*5A
$GPVTG,302.03,T,,M,030.118,N,055.779,K,A*3D
$GPGGA,000250.00,4049.63210322,N,00240.33959421,W,1,05,2.87,+0.00,M,00.000,M,,*52
$GPVTG,302.03,T,,M,030.118,N,055.779,K,A*3D
$GPGGA,000251.00,4049.63210322,N,00240.33959421,W,1,05,2.87,+0.00,M,00.000,M,,*53
$GPVTG,302.03,T,,M,030.118,N,055.779,K,A*3D
$GPGGA,000252.00,4049.63210322,N,00240.33959421,W,1,05,2.87,+0.00,M,00.000,M,,*50
$GPVTG,302.03,T,,M,030.118,N,055.779,K,A*3D
$GPGGA,000253.00,4049.63210322,N,00240.33959421,W,1,05,2.87,+0.00,M,00.000,M,,*51
$GPVTG,302.03,T,,M,030.118,N,055.779,K,A*3D
$GPGGA,000254.00,4049.63210322,N,00240.33959421,W,1,05,2.87,+0.00,M,00.000,M,,*56
$GPVTG,302.03,T,,M,030.118,N,055.779,K,A*3D
$GPGGA,000255.00,4049.63210322,N,00240.33959421,W,1,05,2.87,+0.00,M,00.000,M,,*57
$GPVTG,302.03,T,,M,030.118,N,055.779,K,A*3D
$GPGGA,000256.00,4049.63210322,N,00240.33959421,W,1,05,2.87,+0.00,M,00.000,M,,*54
$GPVTG,302.03,T,,M,030.118,N,055.779,K,A*3D
$GPGGA,000257.00,4049.63210322,N,00240.33959421,W,1,05,2.87,+0.00,M,00.000,M,,*55
$GPVTG,302.03,T,,M,030.118,N,055.779,K,A*3D
$GPGGA,000258.00,4049.63210322,N,00240.33959421,W,1,05,2.87,+0.00,M,00.000,M,,*5A
$GPVTG,302.03,T,,M,030.118,N,055.779,K,A*3D
$GPGGA,000259.00,4049.63210322,N,00240.33959421,W,1,05,2.87,+0.00,M,00.000,M,,*5B
$GPVTG,302.03,T,,M,030.118,N,055.779,K,A*3D
$GPGGA,000300.00,4049.63210322,N,00240.33959421,W,1,05,2.87,+0.00,M,00.000,M,,*56
$GPVTG,302.03,T,,M,030.118,N,055.779,K,A*3D
$GPGGA,000301.00,4049.63210322,N,00240.33959421,W,1,05,2.87,+0.00,M,00.000,M,,*57
$GPVTG,302.03,T,,M,030.118,N,055.779,K,A*3D
$GPGGA,000302.00,4049.63210322,N,00240.33959421,W,1,05,2.87,+0.00,M,00.000,M,,*54
$GPVTG,302.03,T,,M,030.118,N,055.779,K,A*3D
$GPGGA,000303.00,4049.63210322,N,00240.33959421,W,1,05,2.87,+0.00,M,00.000,M,,*55
$GPVTG,302.03,T,,M,030.118,N,055.779,K,A*3D
$GPGGA,000304.00,4049.63210322,N,00240.33959421,W,1,05,2.87,+0.00,M,00.000,M,,*52
$GPVTG,302.03,T,,M,030.118,N,055.779,K,A*3D
$GPGGA,000305.00,4049.63210322,N,00240.33959421,W,1,05,2.87,+0.00,M,00.000,M,,*53
$GPVTG,302.03,T,,M,030.118,N,055.779,K,A*3D
$GPGGA,000306.00,4049.63210322,N,00240.33959421,W,1,05,2.87,+0.00,M,00.000,M,,*50
$GPVTG,302.03,T,,M,030.118,N,055.779,K,A*3D
$GPGGA,000307.00,4049.63210322,N,00240.33959421,W,1,05,2.87,+0.00,M,00.000,M,,*51
$GPVTG,302.03,T,,M,030.118,N,055.779,K,A*3D
$GPGGA,000308.00,4049.63210322,N,00240.33959421,W,1,05,2.87,+0.00,M,00.000,M,,*5E
$GPVTG,302.03,T,,M,030.118,N,055.779,K,A*3D
$GPGGA,000309.00,4049.63210322,N,00240.33959421,W,1,05,2.87,+0.00,M,00.000,M,,*5F
$GPVTG,302.03,T,,M,030.118,N,055.779,K,A*3D
$GPGGA,000310.00,4049.63210322,N,00240.33959421,W,1,05,2.87,+0.00,M,00.000,M,,*57
$GPVTG,302.03,T,,M,030.118,N,055.779,K,A*3D
$GPGGA,000311.00,4049.63210322,N,00240.33959421,W,1,05,2.87,+0.00,M,00.000,M,,*56
$GPVTG,302.03,T,,M,030.118,N,055.779,K,A*3D
$GPGGA,000312.00,4049.63210322,N,00240.33959421,W,1,05,2.87,+0.00,M,00.000,M,,*55
$GPVTG,302.03,T,,M,030.118,N,055.779,K,A*3D
$GPGGA,000313.00,4049.63210322,N,00240.33959421,W,1,05,2.87,+0.00,M,00.000,M,,*54
$GPVTG,302.03,T,,M,030.118,N,055.779,K,A*3D
$GPGGA,000314.00,4049.63210322,N,00240.33959421,W,1,05,2.87,+0.00,M,00.000,M,,*53
$GPVTG,302.03,T,,M,030.118,N,055.779,K,A*3D
$GPGGA,000315.00,4049.63210322,N,00240.33959421,W,1,05,2.87,+0.00,M,00.000,M,,*52
$GPVTG,302.03,T,,M,030.118,N,055.779,K,A*3D
$GPGGA,000316.00,4049.63210322,N,00240.33959421,W,1,05,2.87,+0.00,M,00.000,M,,*51
$GPVTG,302.03,T,,M,030.118,N,055.779,K,A*3D
$GPGGA,000317.00,4049.63210322,N,00240.33959421,W,1,05,2.87,+0.00,M,00.000,M,,*50
$GPVTG,302.03,T,,M,030.118,N,055.779,K,A*3D
$GPGGA,000318.00,4049.63210322,N,00240.33959421,W,1,05,2.87,+0.00,M,00.000,M,,*5F
$GPVTG,302.03,T,,M,030.118,N,055.779,K,A*3D
$GPGGA,000319.00,4049.63210322,N,00240.33959421,W,1,05,2.87,+0.00,M,00.000,M,,*5E
$GPVTG,302.03,T,,M,030.118,N,055.779,K,A*3D
$GPGGA,000320.00,4049.60766116,N,00240.31946085,W,1,05,2.87,-0.01,M,00.000,M,,*57
$GPVTG,302.03,T,,M,103.731,N,192.110,K,A*32
$GPGGA,000321.00,4049.56075275,N,00240.28082241,W,1,05,2.87,-0.03,M,00.000,M,,*51
$GPVTG,302.03,T,,M,199.077,N,368.690,K,A*3C
$GPGGA,000322.00,4049.49483070,N,00240.22652428,W,1,05,2.87,-0.05,M,00.000,M,,*58
$GPVTG,302.03,T,,M,279.768,N,518.131,K,A*35
$GPGGA,000323.00,4049.42485426,N,00240.16888903,W,1,05,2.87,-0.07,M,00.000,M,,*5B
$GPVTG,302.03,T,,M,296.973,N,549.993,K,A*34
$GPGGA,000324.00,4049.35487726,N,00240.11125573,W,1,05,2.87,-0.08,M,00.000,M,,*50
$GPVTG,302.03,T,,M,296.973,N,549.994,K,A*33
$GPGGA,000325.00,4049.28489977,N,00240.05362446,W,1,05,2.87,-0.10,M,00.000,M,,*53
$GPVTG,302.03,T,,M,296.973,N,549.994,K,A*33
$GPGGA,000326.00,4049.21492178,N,00239.99599520,W,1,05,2.87,-0.10,M,00.000,M,,*5C
$GPVTG,302.03,T,,M,296.973,N,549.994,K,A*33
$GPGGA,000327.00,4049.14494330,N,00239.93836796,W,1,05,2.87,-0.11,M,00.000,M,,*5F
$GPVTG,302.03,T,,M,296.973,N,549.994,K,A*33
$GPGGA,000328.00,4049.07496432,N,00239.88074274,W,1,05,2.87,-0.11,M,00.000,M,,*58
$GPVTG,302.03,T,,M,296.973,N,549.994,K,A*33
$GPGGA,000329.00,4049.00498485,N,00239.82311954,W,1,05,2.87,-0.10,M,00.000,M,,*5E
$GPVTG,302.03,T,,M,296.973,N,549.994,K,A*33
$GPGGA,000330.00,4048.93500489,N,00239.76549836,W,1,05,2.87,-0.10,M,00.000,M,,*54
$GPVTG,302.03,T,,M,296.973,N,549.994,K,A*33
$GPGGA,000331.00,4048.86502443,N,00239.70787920,W,1,05,2.87,-0.09,M,00.000,M,,*5D
$GPVTG,302.03,T,,M,296.973,N,549.994,K,A*33
$GPGGA,000332.00,4048.79504348,N,00239.65026205,W,1,05,2.87,-0.07,M,00.000,M,,*5E
$GPVTG,302.03,T,,M,296.973,N,549.994,K,A*33
$GPGGA,000333.00,4048.72506203,N,00239.59264692,W,1,05,2.87,-0.06,M,00.000,M,,*58
$GPVTG,302.03,T,,M,296.973,N,549.994,K,A*33
$GPGGA,000334.00,4048.65508009,N,00239.53503381,W,1,05,2.87,-0.03,M,00.000,M,,*51
$GPVTG,302.03,T,,M,296.973,N,549.994,K,A*33
$GPGGA,000335.00,4048.58509987,N,00239.47741807,W,1,05,2.87,-0.01,M,00.000,M,,*56
$GPVTG,302.04,T,,M,296.973,N,549.994,K,A*34
$GPGGA,000336.00,4048.52116328,N,00239.40915119,W,1,05,2.87,-0.01,M,00.000,M,,*54
$GPVTG,309.06,T,,M,296.205,N,548.571,K,A*31
$GPGGA,000337.00,4048.45999216,N,00239.33620962,W,1,05,2.87,-0.03,M,00.000,M,,*5B
$GPVTG,312.19,T,,M,296.973,N,549.994,K,A*39
$GPGGA,000338.00,4048.39882027,N,00239.26327028,W,1,05,2.87,-0.04,M,00.000,M,,*52
$GPVTG,312.19,T,,M,296.973,N,549.994,K,A*39
$GPGGA,000339.00,4048.33764760,N,00239.19033317,W,1,05,2.87,-0.05,M,00.000,M,,*5E
$GPVTG,312.19,T,,M,296.973,N,549.994,K,A*39
$GPGGA,000340.00,4048.27647415,N,00239.11739829,W,1,05,2.87,-0.05,M,00.000,M,,*57
$GPVTG,312.19,T,,M,296.973,N,549.994,K,A*39
$GPGGA,000341.00,4048.21529992,N,00239.04446564,W,1,05,2.87,-0.05,M,00.000,M,,*52
$GPVTG,312.19,T,,M,296.973,N,549.994,K,A*39
$GPGGA,000342.00,4048.15412491,N,00238.97153523,W,1,05,2.87,-0.05,M,00.000,M,,*58
$GPVTG,312.19,T,,M,296.973,N,549.994,K,A*39
$GPGGA,000343.00,4048.09294912,N,00238.89860705,W,1,05,2.87,-0.04,M,00.000,M,,*5B
$GPVTG,312.19,T,,M,296.973,N,549.994,K,A*39
$GPGGA,000344.00,4048.03177255,N,00238.82568110,W,1,05,2.87,-0.03,M,00.000,M,,*5B
$GPVTG,312.19,T,,M,296.973,N,549.994,K,A*39
$GPGGA,000345.00,4047.97059520,N,00238.75275738,W,1,05,2.87,-0.01,M,00.000,M,,*5D
$GPVTG,312.19,T,,M,296.973,N,549.994,K,A*39
$GPGGA,000346.00,4047.90992091,N,00238.67912536,W,1,05,2.87,+0.00,M,00.000,M,,*5A
$GPVTG,312.70,T,,M,296.945,N,549.943,K,A*39
$GPGGA,000347.00,4047.85082370,N,00238.60329163,W,1,05,2.87,-0.02,M,00.000,M,,*5E
$GPVTG,314.30,T,,M,296.973,N,549.994,K,A*34
$GPGGA,000348.00,4047.79172733,N,00238.52745788,W,1,05,2.87,-0.03,M,00.000,M,,*52
$GPVTG,314.30,T,,M,296.973,N,549.994,K,A*34
$GPGGA,000349.00,4047.73263012,N,00238.45162636,W,1,05,2.87,-0.04,M,00.000,M,,*58
$GPVTG,314.30,T,,M,296.973,N,549.994,K,A*34
$GPGGA,000350.00,4047.67353206,N,00238.37579709,W,1,05,2.87,-0.04,M,00.000,M,,*56
$GPVTG,314.30,T,,M,296.973,N,549.994,K,A*34
$GPGGA,000351.00,4047.61443317,N,00238.29997005,W,1,05,2.87,-0.04,M,00.000,M,,*5E
$GPVTG,314.30,T,,M,296.973,N,549.994,K,A*34
$GPGGA,000352.00,4047.55533344,N,00238.22414526,W,1,05,2.87,-0.03,M,00.000,M,,*54
$GPVTG,314.30,T,,M,296.973,N,549.994,K,A*34
$GPGGA,000353.00,4047.49623286,N,00238.14832271,W,1,05,2.87,-0.03,M,00.000,M,,*5D
$GPVTG,314.30,T,,M,296.973,N,549.994,K,A*34
$GPGGA,000354.00,4047.43713145,N,00238.07250240,W,1,05,2.87,-0.01,M,00.000,M,,*52
$GPVTG,314.30,T,,M,296.973,N,549.994,K,A*34
$GPGGA,000355.00,4047.37790772,N,00237.99685095,W,1,05,2.87,+0.00,M,00.000,M,,*50
$GPVTG,314.18,T,,M,296.968,N,549.985,K,A*34
$GPGGA,000356.00,4047.31558929,N,00237.92563333,W,1,05,2.87,-0.01,M,00.000,M,,*5B
$GPVTG,311.00,T,,M,296.970,N,549.988,K,A*3C
$GPGGA,000357.00,4047.25317478,N,00237.85456090,W,1,05,2.87,-0.02,M,00.000,M,,*53
$GPVTG,310.90,T,,M,296.973,N,549.994,K,A*3A
$GPGGA,000358.00,4047.19075953,N,00237.78349069,W,1,05,2.87,-0.02,M,00.000,M,,*5D
$GPVTG,310.90,T,,M,296.973,N,549.994,K,A*3A
$GPGGA,000359.00,4047.12834354,N,00237.71242270,W,1,05,2.87,-0.02,M,00.000,M,,*5E
$GPVTG,310.90,T,,M,296.973,N,549.994,K,A*3A
$GPGGA,000400.00,4047.06592680,N,00237.64135692,W,1,05,2.87,-0.02,M,00.000,M,,*52
$GPVTG,310.90,T,,M,296.973,N,549.994,K,A*3A
$GPGGA,000401.00,4047.00526565,N,00237.57229293,W,1,05,2.87,-0.01,M,00.000,M,,*5A
$GPVTG,310.90,T,,M,288.617,N,534.518,K,A*3A
$GPGGA,000402.00,4046.95904810,N,00237.51967571,W,1,05,2.87,-0.01,M,00.000,M,,*5B
$GPVTG,310.90,T,,M,219.893,N,407.242,K,A*39
$GPGGA,000403.00,4046.93124053,N,00237.48845147,W,1,05,2.87,+0.00,M,00.000,M,,*56
$GPVTG,310.51,T,,M,131.530,N,243.593,K,A*34
$GPGGA,000404.00,4046.90423894,N,00237.47120625,W,1,05,2.87,+0.00,M,00.000,M,,*55
$GPVTG,295.93,T,,M,107.987,N,199.991,K,A*39
$GPGGA,000405.00,4046.85910895,N,00237.44858327,W,1,05,2.87,-0.01,M,00.000,M,,*59
$GPVTG,290.89,T,,M,173.753,N,321.790,K,A*3D
$GPGGA,000406.00,4046.79071576,N,00237.41432540,W,1,05,2.87,-0.01,M,00.000,M,,*55
$GPVTG,290.88,T,,M,263.292,N,487.616,K,A*32
$GPGGA,000407.00,4046.71367895,N,00237.37573949,W,1,05,2.87,-0.02,M,00.000,M,,*5B
$GPVTG,290.88,T,,M,296.566,N,549.240,K,A*30
$GPGGA,000408.00,4046.63653610,N,00237.33710206,W,1,05,2.87,-0.01,M,00.000,M,,*56
$GPVTG,290.88,T,,M,296.973,N,549.994,K,A*3A
$GPGGA,000409.00,4046.56235586,N,00237.29995000,W,1,05,2.87,-0.01,M,00.000,M,,*55
$GPVTG,290.88,T,,M,285.567,N,528.871,K,A*3C
$GPGGA,000410.00,4046.50739442,N,00237.27242550,W,1,05,2.87,+0.00,M,00.000,M,,*53
$GPVTG,290.88,T,,M,211.580,N,391.847,K,A*39
$GPGGA,000411.00,4046.47228628,N,00237.25604571,W,1,05,2.87,+0.00,M,00.000,M,,*58
$GPVTG,289.56,T,,M,134.018,N,248.202,K,A*3C
$GPGGA,000412.00,4046.43427364,N,00237.24977124,W,1,05,2.87,-0.01,M,00.000,M,,*52
$GPVTG,277.19,T,,M,137.831,N,255.263,K,A*3D
$GPGGA,000413.00,4046.37376704,N,00237.24089071,W,1,05,2.87,-0.02,M,00.000,M,,*5B
$GPVTG,276.40,T,,M,219.036,N,405.655,K,A*32
$GPGGA,000414.00,4046.29411878,N,00237.22920191,W,1,05,2.87,-0.03,M,00.000,M,,*53
$GPVTG,276.40,T,,M,288.329,N,533.985,K,A*31
$GPGGA,000415.00,4046.21208055,N,00237.21716286,W,1,05,2.87,-0.03,M,00.000,M,,*5E
$GPVTG,276.40,T,,M,296.981,N,550.008,K,A*3F
$GPGGA,000416.00,4046.13004227,N,00237.20512430,W,1,05,2.87,-0.03,M,00.000,M,,*59
$GPVTG,276.40,T,,M,296.981,N,550.008,K,A*3F
$GPGGA,000417.00,4046.04800396,N,00237.19308624,W,1,05,2.87,-0.03,M,00.000,M,,*59
$GPVTG,276.40,T,,M,296.981,N,550.008,K,A*3F
$GPGGA,000418.00,4045.96596560,N,00237.18104867,W,1,05,2.87,-0.03,M,00.000,M,,*55
$GPVTG,276.40,T,,M,296.981,N,550.008,K,A*3F
$GPGGA,000419.00,4045.88392721,N,00237.16901159,W,1,05,2.87,-0.02,M,00.000,M,,*58
$GPVTG,276.40,T,,M,296.981,N,550.008,K,A*3F
$GPGGA,000420.00,4045.80188876,N,00237.15697517,W,1,05,2.87,-0.01,M,00.000,M,,*50
$GPVTG,276.40,T,,M,296.981,N,550.008,K,A*3F
$GPGGA,000421.00,4045.71977678,N,00237.14585774,W,1,05,2.87,-0.01,M,00.000,M,,*51
$GPVTG,275.91,T,,M,296.976,N,549.999,K,A*31
$GPGGA,000422.00,4045.63762243,N,00237.13527710,W,1,05,2.87,-0.02,M,00.000,M,,*59
$GPVTG,275.63,T,,M,296.981,N,550.008,K,A*3D
$GPGGA,000423.00,4045.55546804,N,00237.12469689,W,1,05,2.87,-0.02,M,00.000,M,,*5B
$GPVTG,275.63,T,,M,296.981,N,550.008,K,A*3D
$GPGGA,000424.00,4045.47331362,N,00237.11411711,W,1,05,2.87,-0.03,M,00.000,M,,*5F
$GPVTG,275.63,T,,M,296.981,N,550.008,K,A*3D
$GPGGA,000425.00,4045.39115916,N,00237.10353776,W,1,05,2.87,-0.03,M,00.000,M,,*5B
$GPVTG,275.63,T,,M,296.981,N,550.008,K,A*3D
$GPGGA,000426.00,4045.30900467,N,00237.09295886,W,1,05,2.87,-0.02,M,00.000,M,,*54
$GPVTG,275.63,T,,M,296.981,N,550.008,K,A*3D
$GPGGA,000427.00,4045.22685014,N,00237.08238038,W,1,05,2.87,-0.01,M,00.000,M,,*5C
$GPVTG,275.63,T,,M,296.981,N,550.008,K,A*3D
$GPGGA,000428.00,4045.14469740,N,00237.07177795,W,1,05,2.87,+0.00,M,00.000,M,,*50
$GPVTG,275.64,T,,M,296.981,N,550.008,K,A*3A
$GPGGA,000429.00,4045.06323734,N,00237.05438420,W,1,05,2.87,-0.01,M,00.000,M,,*5E
$GPVTG,279.26,T,,M,296.907,N,549.872,K,A*33
$GPGGA,000430.00,4044.98192036,N,00237.03571256,W,1,05,2.87,-0.02,M,00.000,M,,*53
$GPVTG,279.94,T,,M,296.981,N,550.008,K,A*39
$GPGGA,000431.00,4044.90060331,N,00237.01704168,W,1,05,2.87,-0.03,M,00.000,M,,*5F
$GPVTG,279.94,T,,M,296.981,N,550.008,K,A*39
$GPGGA,000432.00,4044.81928618,N,00236.99837155,W,1,05,2.87,-0.04,M,00.000,M,,*51
$GPVTG,279.94,T,,M,296.981,N,550.008,K,A*39
$GPGGA,000433.00,4044.73796899,N,00236.97970219,W,1,05,2.87,-0.04,M,00.000,M,,*56
$GPVTG,279.94,T,,M,296.981,N,550.008,K,A*39
$GPGGA,000434.00,4044.65665173,N,00236.96103358,W,1,05,2.87,-0.03,M,00.000,M,,*58
$GPVTG,279.94,T,,M,296.981,N,550.008,K,A*39
$GPGGA,000435.00,4044.57533440,N,00236.94236573,W,1,05,2.87,-0.02,M,00.000,M,,*54
$GPVTG,279.94,T,,M,296.981,N,550.008,K,A*39
$GPGGA,000436.00,4044.49401700,N,00236.92369864,W,1,05,2.87,-0.01,M,00.000,M,,*5A
$GPVTG,279.94,T,,M,296.981,N,550.008,K,A*39
$GPGGA,000437.00,4044.41270872,N,00236.90496409,W,1,05,2.87,+0.00,M,00.000,M,,*5C
$GPVTG,279.98,T,,M,296.980,N,550.008,K,A*34
$GPGGA,000438.00,4044.33161175,N,00236.88470812,W,1,05,2.87,-0.02,M,00.000,M,,*58
$GPVTG,280.79,T,,M,296.981,N,550.008,K,A*3C
$GPGGA,000439.00,4044.25052063,N,00236.86441176,W,1,05,2.87,-0.03,M,00.000,M,,*5F
$GPVTG,280.82,T,,M,296.981,N,550.008,K,A*38
$GPGGA,000440.00,4044.16942942,N,00236.84411623,W,1,05,2.87,-0.05,M,00.000,M,,*55
$GPVTG,280.82,T,,M,296.981,N,550.008,K,A*38
$GPGGA,000441.00,4044.08833814,N,00236.82382152,W,1,05,2.87,-0.05,M,00.000,M,,*54
$GPVTG,280.82,T,,M,296.981,N,550.008,K,A*38
$GPGGA,000442.00,4044.00724678,N,00236.80352763,W,1,05,2.87,-0.06,M,00.000,M,,*5A
$GPVTG,280.82,T,,M,296.981,N,550.008,K,A*38
$GPGGA,000443.00,4043.92615534,N,00236.78323456,W,1,05,2.87,-0.06,M,00.000,M,,*5B
$GPVTG,280.82,T,,M,296.981,N,550.008,K,A*38
$GPGGA,000444.00,4043.84506382,N,00236.76294231,W,1,05,2.87,-0.05,M,00.000,M,,*56
$GPVTG,280.82,T,,M,296.981,N,550.008,K,A*38
$GPGGA,000445.00,4043.76397222,N,00236.74265089,W,1,05,2.87,-0.05,M,00.000,M,,*52
$GPVTG,280.82,T,,M,296.981,N,550.008,K,A*38
$GPGGA,000446.00,4043.68288054,N,00236.72236028,W,1,05,2.87,-0.04,M,00.000,M,,*58
$GPVTG,280.82,T,,M,296.981,N,550.008,K,A*38
$GPGGA,000447.00,4043.60580989,N,00236.70307659,W,1,05,2.87,-0.02,M,00.000,M,,*50
$GPVTG,280.82,T,,M,282.254,N,522.735,K,A*32
$GPGGA,000448.00,4043.55010302,N,00236.68913876,W,1,05,2.87,-0.01,M,00.000,M,,*5A
$GPVTG,280.82,T,,M,204.014,N,377.834,K,A*32
$GPGGA,000449.00,4043.52043064,N,00236.68171491,W,1,05,2.87,+0.00,M,00.000,M,,*57
$GPVTG,280.82,T,,M,108.668,N,201.254,K,A*3C
$GPGGA,000450.00,4043.51402919,N,00236.68011332,W,1,05,2.87,+0.00,M,00.000,M,,*57
$GPVTG,280.82,T,,M,023.444,N,043.418,K,A*32
$GPGGA,000451.00,4043.51402919,N,00236.68011332,W,1,05,2.87,+0.00,M,00.000,M,,*56
$GPVTG,280.82,T,,M,023.444,N,043.418,K,A*32
$GPGGA,000452.00,4043.51402919,N,00236.68011332,W,1,05,2.87,+0.00,M,00.000,M,,*55
$GPVTG,280.82,T,,M,023.444,N,043.418,K,A*32
$GPGGA,000453.00,4043.51402919,N,00236.68011332,W,1,05,2.87,+0.00,M,00.000,M,,*54
$GPVTG,280.82,T,,M,023.444,N,043.418,K,A*32
$GPGGA,000454.00,4043.51402919,N,00236.68011332,W,1,05,2.87,+0.00,M,00.000,M,,*53
$GPVTG,280.82,T,,M,023.444,N,043.418,K,A*32
$GPGGA,000455.00,4043.51402919,N,00236.68011332,W,1,05,2.87,+0.00,M,00.000,M,,*52
$GPVTG,280.82,T,,M,023.444,N,043.418,K,A*32
$GPGGA,000456.00,4043.51402919,N,00236.68011332,W,1,05,2.87,+0.00,M,00.000,M,,*51
$GPVTG,280.82,T,,M,023.444,N,043.418,K,A*32
