$GPGGA,000000.00,4046.88243517,N,00237.36546862,W,1,05,2.87,+0.00,M,00.000,M,,*55
$GPVTG,310.02,T,,M,023.937,N,044.331,K,A*30
$GPGGA,000001.00,4046.88243517,N,00237.36546862,W,1,05,2.87,+0.00,M,00.000,M,,*54
$GPVTG,310.02,T,,M,023.937,N,044.331,K,A*30
$GPGGA,000002.00,4046.88243517,N,00237.36546862,W,1,05,2.87,+0.00,M,00.000,M,,*57
$GPVTG,310.02,T,,M,023.937,N,044.331,K,A*30
$GPGGA,000003.00,4046.88243517,N,00237.36546862,W,1,05,2.87,+0.00,M,00.000,M,,*56
$GPVTG,310.02,T,,M,023.937,N,044.331,K,A*30
$GPGGA,000004.00,4046.88243517,N,00237.36546862,W,1,05,2.87,+0.00,M,00.000,M,,*51
$GPVTG,310.02,T,,M,023.937,N,044.331,K,A*30
$GPGGA,000005.00,4046.88243517,N,00237.36546862,W,1,05,2.87,+0.00,M,00.000,M,,*50
$GPVTG,310.02,T,,M,023.937,N,044.331,K,A*30
$GPGGA,000006.00,4046.88243517,N,00237.36546862,W,1,05,2.87,+0.00,M,00.000,M,,*53
$GPVTG,310.02,T,,M,023.937,N,044.331,K,A*30
$GPGGA,000007.00,4046.88243517,N,00237.36546862,W,1,05,2.87,+0.00,M,00.000,M,,*52
$GPVTG,310.02,T,,M,023.937,N,044.331,K,A*30
$GPGGA,000008.00,4046.88243517,N,00237.36546862,W,1,05,2.87,+0.00,M,00.000,M,,*5D
$GPVTG,310.02,T,,M,023.937,N,044.331,K,A*30
$GPGGA,000009.00,4046.88243517,N,00237.36546862,W,1,05,2.87,+0.00,M,00.000,M,,*5C
$GPVTG,310.02,T,,M,023.937,N,044.331,K,A*30
$GPGGA,000010.00,4046.88243517,N,00237.36546862,W,1,05,2.87,+0.00,M,00.000,M,,*54
$GPVTG,310.02,T,,M,023.937,N,044.331,K,A*30
$GPGGA,000011.00,4046.88243517,N,00237.36546862,W,1,05,2.87,+0.00,M,00.000,M,,*55
$GPVTG,310.02,T,,M,023.937,N,044.331,K,A*30
$GPGGA,000012.00,4046.88243517,N,00237.36546862,W,1,05,2.87,+0.00,M,00.000,M,,*56
$GPVTG,310.02,T,,M,023.937,N,044.331,K,A*30
$GPGGA,000013.00,4046.88243517,N,00237.36546862,W,1,05,2.87,+0.00,M,00.000,M,,*57
$GPVTG,310.02,T,,M,023.937,N,044.331,K,A*30
$GPGGA,000014.00,4046.88243517,N,00237.36546862,W,1,05,2.87,+0.00,M,00.000,M,,*50
$GPVTG,310.02,T,,M,023.937,N,044.331,K,A*30
$GPGGA,000015.00,4046.88243517,N,00237.36546862,W,1,05,2.87,+0.00,M,00.000,M,,*51
$GPVTG,310.02,T,,M,023.937,N,044.331,K,A*30
$GPGGA,000016.00,4046.88243517,N,00237.36546862,W,1,05,2.87,+0.00,M,00.000,M,,*52
$GPVTG,310.02,T,,M,023.937,N,044.331,K,A*30
$GPGGA,000017.00,4046.88243517,N,00237.36546862,W,1,05,2.87,+0.00,M,00.000,M,,*53
$GPVTG,310.02,T,,M,023.937,N,044.331,K,A*30
$GPGGA,000018.00,4046.88243517,N,00237.36546862,W,1,05,2.87,+0.00,M,00.000,M,,*5C
$GPVTG,310.02,T,,M,023.937,N,044.331,K,A*30
$GPGGA,000019.00,4046.88243517,N,00237.36546862,W,1,05,2.87,+0.00,M,00.000,M,,*5D
$GPVTG,310.02,T,,M,023.937,N,044.331,K,A*30
$GPGGA,000020.00,4046.88243517,N,00237.36546862,W,1,05,2.87,+0.00,M,00.000,M,,*57
$GPVTG,310.02,T,,M,023.937,N,044.331,K,A*30
$GPGGA,000021.00,4046.88243517,N,00237.36546862,W,1,05,2.87,+0.00,M,00.000,M,,*56
$GPVTG,310.02,T,,M,023.937,N,044.331,K,A*30
$GPGGA,000022.00,4046.88243517,N,00237.36546862,W,1,05,2.87,+0.00,M,00.000,M,,*55
$GPVTG,310.02,T,,M,023.937,N,044.331,K,A*30
$GPGGA,000023.00,4046.88243517,N,00237.36546862,W,1,05,2.87,+0.00,M,00.000,M,,*54
$GPVTG,310.02,T,,M,023.937,N,044.331,K,A*30
$GPGGA,000024.00,4046.88243517,N,00237.36546862,W,1,05,2.87,+0.00,M,00.000,M,,*53
$GPVTG,310.02,T,,M,023.937,N,044.331,K,A*30
$GPGGA,000025.00,4046.88243517,N,00237.36546862,W,1,05,2.87,+0.00,M,00.000,M,,*52
$GPVTG,310.02,T,,M,023.937,N,044.331,K,A*30
$GPGGA,000026.00,4046.88243517,N,00237.36546862,W,1,05,2.87,+0.00,M,00.000,M,,*51
$GPVTG,310.02,T,,M,023.937,N,044.331,K,A*30
$GPGGA,000027.00,4046.88243517,N,00237.36546862,W,1,05,2.87,+0.00,M,00.000,M,,*50
$GPVTG,310.02,T,,M,023.937,N,044.331,K,A*30
$GPGGA,000028.00,4046.88243517,N,00237.36546862,W,1,05,2.87,+0.00,M,00.000,M,,*5F
$GPVTG,310.02,T,,M,023.937,N,044.331,K,A*30
$GPGGA,000029.00,4046.88243517,N,00237.36546862,W,1,05,2.87,+0.00,M,00.000,M,,*5E
$GPVTG,310.02,T,,M,023.937,N,044.331,K,A*30
$GPGGA,000030.00,4046.88243517,N,00237.36546862,W,1,05,2.87,+0.00,M,00.000,M,,*56
$GPVTG,310.02,T,,M,023.937,N,044.331,K,A*30
$GPGGA,000031.00,4046.88243517,N,00237.36546862,W,1,05,2.87,+0.00,M,00.000,M,,*57
$GPVTG,310.02,T,,M,023.937,N,044.331,K,A*30
$GPGGA,000032.00,4046.88243517,N,00237.36546862,W,1,05,2.87,+0.00,M,00.000,M,,*54
$GPVTG,310.02,T,,M,023.937,N,044.331,K,A*30
$GPGGA,000033.00,4046.88243517,N,00237.36546862,W,1,05,2.87,+0.00,M,00.000,M,,*55
$GPVTG,310.02,T,,M,023.937,N,044.331,K,A*30
$GPGGA,000034.00,4046.88243517,N,00237.36546862,W,1,05,2.87,+0.00,M,00.000,M,,*52
$GPVTG,310.02,T,,M,023.937,N,044.331,K,A*30
$GPGGA,000035.00,4046.88243517,N,00237.36546862,W,1,05,2.87,+0.00,M,00.000,M,,*53
$GPVTG,310.02,T,,M,023.937,N,044.331,K,A*30
$GPGGA,000036.00,4046.88243517,N,00237.36546862,W,1,05,2.87,+0.00,M,00.000,M,,*50
$GPVTG,310.02,T,,M,023.937,N,044.331,K,A*30
$GPGGA,000037.00,4046.88243517,N,00237.36546862,W,1,05,2.87,+0.00,M,00.000,M,,*51
$GPVTG,310.02,T,,M,023.937,N,044.331,K,A*30
$GPGGA,000038.00,4046.88243517,N,00237.36546862,W,1,05,2.87,+0.00,M,00.000,M,,*5E
$GPVTG,310.02,T,,M,023.937,N,044.331,K,A*30
$GPGGA,000039.00,4046.88243517,N,00237.36546862,W,1,05,2.87,+0.00,M,00.000,M,,*5F
$GPVTG,310.02,T,,M,023.937,N,044.331,K,A*30
$GPGGA,000040.00,4046.88243517,N,00237.36546862,W,1,05,2.87,+0.00,M,00.000,M,,*51
$GPVTG,310.02,T,,M,023.937,N,044.331,K,A*30
$GPGGA,000041.00,4046.88243517,N,00237.36546862,W,1,05,2.87,+0.00,M,00.000,M,,*50
$GPVTG,310.02,T,,M,023.937,N,044.331,K,A*30
$GPGGA,000042.00,4046.88243517,N,00237.36546862,W,1,05,2.87,+0.00,M,00.000,M,,*53
$GPVTG,310.02,T,,M,023.937,N,044.331,K,A*30
$GPGGA,000043.00,4046.88243517,N,00237.36546862,W,1,05,2.87,+0.00,M,00.000,M,,*52
$GPVTG,310.02,T,,M,023.937,N,044.331,K,A*30
$GPGGA,000044.00,4046.88243517,N,00237.36546862,W,1,05,2.87,+0.00,M,00.000,M,,*55
$GPVTG,310.02,T,,M,023.937,N,044.331,K,A*30
$GPGGA,000045.00,4046.88243517,N,00237.36546862,W,1,05,2.87,+0.00,M,00.000,M,,*54
$GPVTG,310.02,T,,M,023.937,N,044.331,K,A*30
$GPGGA,000046.00,4046.88243517,N,00237.36546862,W,1,05,2.87,+0.00,M,00.000,M,,*57
$GPVTG,310.02,T,,M,023.937,N,044.331,K,A*30
$GPGGA,000047.00,4046.88243517,N,00237.36546862,W,1,05,2.87,+0.00,M,00.000,M,,*56
$GPVTG,310.02,T,,M,023.937,N,044.331,K,A*30
$GPGGA,000048.00,4046.88243517,N,00237.36546862,W,1,05,2.87,+0.00,M,00.000,M,,*59
$GPVTG,310.02,T,,M,023.937,N,044.331,K,A*30
$GPGGA,000049.00,4046.88243517,N,00237.36546862,W,1,05,2.87,+0.00,M,00.000,M,,*58
$GPVTG,310.02,T,,M,023.937,N,044.331,K,A*30
$GPGGA,000050.00,4046.88243517,N,00237.36546862,W,1,05,2.87,+0.00,M,00.000,M,,*50
$GPVTG,310.02,T,,M,023.937,N,044.331,K,A*30
$GPGGA,000051.00,4046.88243517,N,00237.36546862,W,1,05,2.87,+0.00,M,00.000,M,,*51
$GPVTG,310.02,T,,M,023.937,N,044.331,K,A*30
$GPGGA,000052.00,4046.88243517,N,00237.36546862,W,1,05,2.87,+0.00,M,00.000,M,,*52
$GPVTG,310.02,T,,M,023.937,N,044.331,K,A*30
$GPGGA,000053.00,4046.88243517,N,00237.36546862,W,1,05,2.87,+0.00,M,00.000,M,,*53
$GPVTG,310.02,T,,M,023.937,N,044.331,K,A*30
$GPGGA,000054.00,4046.88243517,N,00237.36546862,W,1,05,2.87,+0.00,M,00.000,M,,*54
$GPVTG,310.02,T,,M,023.937,N,044.331,K,A*30
$GPGGA,000055.00,4046.88243517,N,00237.36546862,W,1,05,2.87,+0.00,M,00.000,M,,*55
$GPVTG,310.02,T,,M,023.937,N,044.331,K,A*30
$GPGGA,000056.00,4046.88243517,N,00237.36546862,W,1,05,2.87,+0.00,M,00.000,M,,*56
$GPVTG,310.02,T,,M,023.937,N,044.331,K,A*30
$GPGGA,000057.00,4046.88243517,N,00237.36546862,W,1,05,2.87,+0.00,M,00.000,M,,*57
$GPVTG,310.02,T,,M,023.937,N,044.331,K,A*30
$GPGGA,000058.00,4046.88243517,N,00237.36546862,W,1,05,2.87,+0.00,M,00.000,M,,*58
$GPVTG,310.02,T,,M,023.937,N,044.331,K,A*30
$GPGGA,000059.00,4046.88243517,N,00237.36546862,W,1,05,2.87,+0.00,M,00.000,M,,*59
$GPVTG,310.02,T,,M,023.937,N,044.331,K,A*30
$GPGGA,000100.00,4046.88243517,N,00237.36546862,W,1,05,2.87,+0.00,M,00.000,M,,*54
$GPVTG,310.02,T,,M,023.937,N,044.331,K,A*30
$GPGGA,000101.00,4046.88243517,N,00237.36546862,W,1,05,2.87,+0.00,M,00.000,M,,*55
$GPVTG,310.02,T,,M,023.937,N,044.331,K,A*30
$GPGGA,000102.00,4046.88243517,N,00237.36546862,W,1,05,2.87,+0.00,M,00.000,M,,*56
$GPVTG,310.02,T,,M,023.937,N,044.331,K,A*30
$GPGGA,000103.00,4046.88243517,N,00237.36546862,W,1,05,2.87,+0.00,M,00.000,M,,*57
$GPVTG,310.02,T,,M,023.937,N,044.331,K,A*30
$GPGGA,000104.00,4046.88243517,N,00237.36546862,W,1,05,2.87,+0.00,M,00.000,M,,*50
$GPVTG,310.02,T,,M,023.937,N,044.331,K,A*30
$GPGGA,000105.00,4046.88243517,N,00237.36546862,W,1,05,2.87,+0.00,M,00.000,M,,*51
$GPVTG,310.02,T,,M,023.937,N,044.331,K,A*30
$GPGGA,000106.00,4046.88243517,N,00237.36546862,W,1,05,2.87,+0.00,M,00.000,M,,*52
$GPVTG,310.02,T,,M,023.937,N,044.331,K,A*30
$GPGGA,000107.00,4046.88243517,N,00237.36546862,W,1,05,2.87,+0.00,M,00.000,M,,*53
$GPVTG,310.02,T,,M,023.937,N,044.331,K,A*30
$GPGGA,000108.00,4046.88243517,N,00237.36546862,W,1,05,2.87,+0.00,M,00.000,M,,*5C
$GPVTG,310.02,T,,M,023.937,N,044.331,K,A*30
$GPGGA,000109.00,4046.88243517,N,00237.36546862,W,1,05,2.87,+0.00,M,00.000,M,,*5D
$GPVTG,310.02,T,,M,023.937,N,044.331,K,A*30
$GPGGA,000110.00,4046.88243517,N,00237.36546862,W,1,05,2.87,+0.00,M,00.000,M,,*55
$GPVTG,310.02,T,,M,023.937,N,044.331,K,A*30
$GPGGA,000111.00,4046.88243517,N,00237.36546862,W,1,05,2.87,+0.00,M,00.000,M,,*54
$GPVTG,310.02,T,,M,023.937,N,044.331,K,A*30
$GPGGA,000112.00,4046.88243517,N,00237.36546862,W,1,05,2.87,+0.00,M,00.000,M,,*57
$GPVTG,310.02,T,,M,023.937,N,044.331,K,A*30
$GPGGA,000113.00,4046.88243517,N,00237.36546862,W,1,05,2.87,+0.00,M,00.000,M,,*56
$GPVTG,310.02,T,,M,023.937,N,044.331,K,A*30
$GPGGA,000114.00,4046.88243517,N,00237.36546862,W,1,05,2.87,+0.00,M,00.000,M,,*51
$GPVTG,310.02,T,,M,023.937,N,044.331,K,A*30
$GPGGA,000115.00,4046.88243517,N,00237.36546862,W,1,05,2.87,+0.00,M,00.000,M,,*50
$GPVTG,310.02,T,,M,023.937,N,044.331,K,A*30
$GPGGA,000116.00,4046.88243517,N,00237.36546862,W,1,05,2.87,+0.00,M,00.000,M,,*53
$GPVTG,310.02,T,,M,023.937,N,044.331,K,A*30
$GPGGA,000117.00,4046.88243517,N,00237.36546862,W,1,05,2.87,+0.00,M,00.000,M,,*52
$GPVTG,310.02,T,,M,023.937,N,044.331,K,A*30
$GPGGA,000118.00,4046.88243517,N,00237.36546862,W,1,05,2.87,+0.00,M,00.000,M,,*5D
$GPVTG,310.02,T,,M,023.937,N,044.331,K,A*30
$GPGGA,000119.00,4046.88243517,N,00237.36546862,W,1,05,2.87,+0.00,M,00.000,M,,*5C
$GPVTG,310.02,T,,M,023.937,N,044.331,K,A*30
$GPGGA,000120.00,4046.89128170,N,00237.37524141,W,1,05,2.87,+0.00,M,00.000,M,,*51
$GPVTG,310.02,T,,M,041.560,N,076.970,K,A*34
$GPGGA,000121.00,4046.90274284,N,00237.38790265,W,1,05,2.87,+0.00,M,00.000,M,,*5D
$GPVTG,310.02,T,,M,053.844,N,099.718,K,A*3D
$GPGGA,000122.00,4046.91423623,N,00237.40059962,W,1,05,2.87,+0.00,M,00.000,M,,*53
$GPVTG,310.02,T,,M,053.995,N,099.999,K,A*37
$GPGGA,000123.00,4046.92572959,N,00237.41329666,W,1,05,2.87,+0.00,M,00.000,M,,*58
$GPVTG,310.02,T,,M,053.995,N,099.999,K,A*37
$GPGGA,000124.00,4046.93722292,N,00237.42599379,W,1,05,2.87,+0.00,M,00.000,M,,*50
$GPVTG,310.02,T,,M,053.995,N,099.999,K,A*37
$GPGGA,000125.00,4046.94871597,N,00237.43869139,W,1,05,2.87,+0.00,M,00.000,M,,*58
$GPVTG,310.02,T,,M,053.995,N,099.999,K,A*37
$GPGGA,000126.00,4046.96020501,N,00237.45139531,W,1,05,2.87,+0.00,M,00.000,M,,*5C
$GPVTG,310.05,T,,M,053.995,N,099.999,K,A*30
$GPGGA,000127.00,4046.97162826,N,00237.46420108,W,1,05,2.87,+0.00,M,00.000,M,,*53
$GPVTG,310.43,T,,M,053.994,N,099.998,K,A*32
$GPGGA,000128.00,4046.98208519,N,00237.47831588,W,1,05,2.87,+0.00,M,00.000,M,,*5C
$GPVTG,315.73,T,,M,053.900,N,099.824,K,A*3F
$GPGGA,000129.00,4046.99113368,N,00237.49406718,W,1,05,2.87,+0.00,M,00.000,M,,*58
$GPVTG,322.92,T,,M,053.992,N,099.994,K,A*35
$GPGGA,000130.00,4047.00003315,N,00237.50996602,W,1,05,2.87,+0.00,M,00.000,M,,*5D
$GPVTG,323.63,T,,M,053.995,N,099.999,K,A*30
$GPGGA,000131.00,4047.00892342,N,00237.52587380,W,1,05,2.87,+0.00,M,00.000,M,,*5F
$GPVTG,323.67,T,,M,053.995,N,099.999,K,A*34
$GPGGA,000132.00,4047.01781309,N,00237.54178221,W,1,05,2.87,+0.00,M,00.000,M,,*57
$GPVTG,323.68,T,,M,053.995,N,099.999,K,A*3B
$GPGGA,000133.00,4047.02670270,N,00237.55769070,W,1,05,2.87,+0.00,M,00.000,M,,*54
$GPVTG,323.68,T,,M,053.995,N,099.999,K,A*3B
$GPGGA,000134.00,4047.03559243,N,00237.57359912,W,1,05,2.87,+0.00,M,00.000,M,,*52
$GPVTG,323.68,T,,M,053.995,N,099.999,K,A*3B
$GPGGA,000135.00,4047.04448464,N,00237.58950518,W,1,05,2.87,+0.00,M,00.000,M,,*5C
$GPVTG,323.66,T,,M,053.995,N,099.999,K,A*35
$GPGGA,000136.00,4047.05341775,N,00237.60537145,W,1,05,2.87,+0.00,M,00.000,M,,*59
$GPVTG,323.47,T,,M,053.995,N,099.999,K,A*36
$GPGGA,000137.00,4047.06266860,N,00237.62091828,W,1,05,2.87,+0.00,M,00.000,M,,*5D
$GPVTG,321.94,T,,M,053.992,N,099.994,K,A*30
$GPGGA,000138.00,4047.07208119,N,00237.63629745,W,1,05,2.87,+0.00,M,00.000,M,,*5C
$GPVTG,321.16,T,,M,053.995,N,099.999,K,A*30
$GPGGA,000139.00,4047.08150437,N,00237.65166543,W,1,05,2.87,+0.00,M,00.000,M,,*5B
$GPVTG,321.10,T,,M,053.995,N,099.999,K,A*36
$GPGGA,000140.00,4047.09092816,N,00237.66703279,W,1,05,2.87,+0.00,M,00.000,M,,*5C
$GPVTG,321.10,T,,M,053.995,N,099.999,K,A*36
$GPGGA,000141.00,4047.10035198,N,00237.68240017,W,1,05,2.87,+0.00,M,00.000,M,,*51
$GPVTG,321.10,T,,M,053.995,N,099.999,K,A*36
$GPGGA,000142.00,4047.10977600,N,00237.69776736,W,1,05,2.87,+0.00,M,00.000,M,,*5E
$GPVTG,321.10,T,,M,053.995,N,099.999,K,A*36
$GPGGA,000143.00,4047.11920395,N,00237.71313042,W,1,05,2.87,+0.00,M,00.000,M,,*5F
$GPVTG,321.08,T,,M,053.995,N,099.999,K,A*3F
$GPGGA,000144.00,4047.12869640,N,00237.72842436,W,1,05,2.87,+0.00,M,00.000,M,,*51
$GPVTG,320.76,T,,M,053.995,N,099.998,K,A*36
$GPGGA,000145.00,4047.13870812,N,00237.74216765,W,1,05,2.87,+0.00,M,00.000,M,,*58
$GPVTG,316.21,T,,M,052.056,N,096.407,K,A*32
$GPGGA,000146.00,4047.14615380,N,00237.74836469,W,1,05,2.87,+0.00,M,00.000,M,,*56
$GPVTG,302.31,T,,M,031.698,N,058.704,K,A*35
$GPGGA,000147.00,4047.15129303,N,00237.74611963,W,1,05,2.87,+0.00,M,00.000,M,,*59
$GPVTG,071.63,T,,M,019.482,N,036.081,K,A*34
$GPGGA,000148.00,4047.15827483,N,00237.73449233,W,1,05,2.87,+0.00,M,00.000,M,,*58
$GPVTG,038.30,T,,M,040.520,N,075.044,K,A*34
$GPGGA,000149.00,4047.16633892,N,00237.71793513,W,1,05,2.87,+0.00,M,00.000,M,,*5E
$GPVTG,032.65,T,,M,053.774,N,099.590,K,A*31
$GPGGA,000150.00,4047.17423518,N,00237.70114330,W,1,05,2.87,+0.00,M,00.000,M,,*54
$GPVTG,031.74,T,,M,053.996,N,100.000,K,A*3D
$GPGGA,000151.00,4047.18094887,N,00237.68353294,W,1,05,2.87,+0.00,M,00.000,M,,*5E
$GPVTG,026.63,T,,M,053.874,N,099.775,K,A*34
$GPGGA,000152.00,4047.18366411,N,00237.66418680,W,1,05,2.87,+0.00,M,00.000,M,,*57
$GPVTG,010.46,T,,M,053.797,N,099.632,K,A*36
$GPGGA,000153.00,4047.18371888,N,00237.64444536,W,1,05,2.87,+0.00,M,00.000,M,,*59
$GPVTG,000.21,T,,M,053.984,N,099.979,K,A*3A
$GPGGA,000154.00,4047.18294490,N,00237.62472609,W,1,05,2.87,+0.00,M,00.000,M,,*5D
$GPVTG,357.04,T,,M,053.995,N,099.999,K,A*32
$GPGGA,000155.00,4047.18221852,N,00237.60500402,W,1,05,2.87,+0.00,M,00.000,M,,*5F
$GPVTG,357.22,T,,M,053.994,N,099.997,K,A*39
$GPGGA,000156.00,4047.18189044,N,00237.58526284,W,1,05,2.87,+0.00,M,00.000,M,,*55
$GPVTG,358.74,T,,M,053.996,N,100.001,K,A*30
$GPGGA,000157.00,4047.18140300,N,00237.56552836,W,1,05,2.87,+0.00,M,00.000,M,,*5C
$GPVTG,358.14,T,,M,053.993,N,099.996,K,A*35
$GPGGA,000158.00,4047.18076099,N,00237.54613454,W,1,05,2.87,+0.00,M,00.000,M,,*58
$GPVTG,357.50,T,,M,053.084,N,098.311,K,A*31
$GPGGA,000159.00,4047.18326147,N,00237.52942735,W,1,05,2.87,+0.00,M,00.000,M,,*54
$GPVTG,011.14,T,,M,046.564,N,086.236,K,A*34
$GPGGA,000200.00,4047.18884862,N,00237.51125407,W,1,05,2.87,+0.00,M,00.000,M,,*5E
$GPVTG,022.02,T,,M,053.607,N,099.280,K,A*32
$GPGGA,000201.00,4047.19383054,N,00237.49263324,W,1,05,2.87,+0.00,M,00.000,M,,*51
$GPVTG,019.39,T,,M,053.982,N,099.974,K,A*30
$GPGGA,000202.00,4047.19601054,N,00237.47346162,W,1,05,2.87,+0.00,M,00.000,M,,*55
$GPVTG,008.51,T,,M,053.009,N,098.172,K,A*3B
$GPGGA,000203.00,4047.19585200,N,00237.46007382,W,1,05,2.87,+0.00,M,00.000,M,,*53
$GPVTG,359.11,T,,M,036.614,N,067.809,K,A*34
$GPGGA,000204.00,4047.19986874,N,00237.45229411,W,1,05,2.87,+0.00,M,00.000,M,,*52
$GPVTG,034.19,T,,M,025.718,N,047.630,K,A*3D
$GPGGA,000205.00,4047.21068201,N,00237.44337952,W,1,05,2.87,+0.00,M,00.000,M,,*5C
$GPVTG,057.93,T,,M,045.910,N,085.024,K,A*37
$GPGGA,000206.00,4047.22393827,N,00237.43412762,W,1,05,2.87,+0.00,M,00.000,M,,*5F
$GPVTG,062.05,T,,M,053.987,N,099.984,K,A*39
$GPGGA,000207.00,4047.23731615,N,00237.42554761,W,1,05,2.87,+0.00,M,00.000,M,,*5D
$GPVTG,064.01,T,,M,053.544,N,099.163,K,A*39
$GPGGA,000208.00,4047.24648224,N,00237.41774072,W,1,05,2.87,+0.00,M,00.000,M,,*5A
$GPVTG,057.08,T,,M,039.284,N,072.753,K,A*37
$GPGGA,000209.00,4047.24960447,N,00237.40791469,W,1,05,2.87,+0.00,M,00.000,M,,*59
$GPVTG,022.69,T,,M,029.123,N,053.935,K,A*30
$GPGGA,000210.00,4047.25374873,N,00237.39923936,W,1,05,2.87,+0.00,M,00.000,M,,*5A
$GPVTG,032.15,T,,M,028.019,N,051.891,K,A*3E
$GPGGA,000211.00,4047.26133594,N,00237.39996330,W,1,05,2.87,+0.00,M,00.000,M,,*5F
$GPVTG,274.15,T,,M,027.368,N,050.686,K,A*3D
$GPGGA,000212.00,4047.26855785,N,00237.40571811,W,1,05,2.87,+0.00,M,00.000,M,,*54
$GPVTG,301.20,T,,M,030.376,N,056.257,K,A*3F
$GPGGA,000213.00,4047.27676535,N,00237.40503488,W,1,05,2.87,+0.00,M,00.000,M,,*5B
$GPVTG,086.38,T,,M,029.587,N,054.795,K,A*33
$GPGGA,000214.00,4047.28618745,N,00237.39608892,W,1,05,2.87,+0.00,M,00.000,M,,*5F
$GPVTG,054.18,T,,M,041.803,N,077.419,K,A*37
$GPGGA,000215.00,4047.29081171,N,00237.38032563,W,1,05,2.87,+0.00,M,00.000,M,,*55
$GPVTG,021.10,T,,M,046.203,N,085.569,K,A*3B
$GPGGA,000216.00,4047.28419251,N,00237.36493837,W,1,05,2.87,+0.00,M,00.000,M,,*5E
$GPVTG,330.49,T,,M,048.348,N,089.540,K,A*33
$GPGGA,000217.00,4047.27360219,N,00237.35103714,W,1,05,2.87,+0.00,M,00.000,M,,*54
$GPVTG,314.93,T,,M,053.820,N,099.675,K,A*39
$GPGGA,000218.00,4047.26451893,N,00237.33938373,W,1,05,2.87,+0.00,M,00.000,M,,*54
$GPVTG,314.28,T,,M,045.644,N,084.532,K,A*3E
$GPGGA,000219.00,4047.26182804,N,00237.33024105,W,1,05,2.87,+0.00,M,00.000,M,,*57
$GPVTG,338.83,T,,M,026.810,N,049.651,K,A*3C
$GPGGA,000220.00,4047.26306497,N,00237.31585235,W,1,05,2.87,+0.00,M,00.000,M,,*59
$GPVTG,006.45,T,,M,039.597,N,073.333,K,A*3C
$GPGGA,000221.00,4047.26557956,N,00237.29651404,W,1,05,2.87,+0.00,M,00.000,M,,*5D
$GPVTG,009.71,T,,M,053.649,N,099.357,K,A*3E
$GPGGA,000222.00,4047.26820756,N,00237.27707262,W,1,05,2.87,+0.00,M,00.000,M,,*57
$GPVTG,010.09,T,,M,053.996,N,100.001,K,A*35
$GPGGA,000223.00,4047.27010736,N,00237.25748777,W,1,05,2.87,+0.00,M,00.000,M,,*52
$GPVTG,007.27,T,,M,053.989,N,099.987,K,A*37
$GPGGA,000224.00,4047.27141929,N,00237.23991034,W,1,05,2.87,+0.00,M,00.000,M,,*5C
$GPVTG,005.61,T,,M,048.296,N,089.445,K,A*3A
$GPGGA,000225.00,4047.26977569,N,00237.22860477,W,1,05,2.87,+0.00,M,00.000,M,,*54
$GPVTG,349.17,T,,M,031.475,N,058.292,K,A*35
$GPGGA,000226.00,4047.26518468,N,00237.21521222,W,1,05,2.87,+0.00,M,00.000,M,,*5F
$GPVTG,335.73,T,,M,040.174,N,074.403,K,A*3E
$GPGGA,000227.00,4047.25733761,N,00237.20024930,W,1,05,2.87,+0.00,M,00.000,M,,*55
$GPVTG,325.40,T,,M,049.710,N,092.064,K,A*3F
$GPGGA,000228.00,4047.24835511,N,00237.18443840,W,1,05,2.87,+0.00,M,00.000,M,,*5F
$GPVTG,323.23,T,,M,053.978,N,099.967,K,A*36
$GPGGA,000229.00,4047.23971076,N,00237.16831102,W,1,05,2.87,+0.00,M,00.000,M,,*54
$GPVTG,324.81,T,,M,053.963,N,099.940,K,A*36
$GPGGA,000230.00,4047.23165555,N,00237.15165070,W,1,05,2.87,+0.00,M,00.000,M,,*5A
$GPVTG,327.54,T,,M,053.994,N,099.997,K,A*3F
$GPGGA,000231.00,4047.22281328,N,00237.13569830,W,1,05,2.87,+0.00,M,00.000,M,,*5D
$GPVTG,323.90,T,,M,053.990,N,099.989,K,A*38
$GPGGA,000232.00,4047.21397963,N,00237.11973548,W,1,05,2.87,+0.00,M,00.000,M,,*59
$GPVTG,323.95,T,,M,053.994,N,099.998,K,A*39
$GPGGA,000233.00,4047.20472844,N,00237.10419862,W,1,05,2.87,+0.00,M,00.000,M,,*54
$GPVTG,321.93,T,,M,053.971,N,099.953,K,A*31
$GPGGA,000234.00,4047.19496531,N,00237.09022117,W,1,05,2.87,+0.00,M,00.000,M,,*53
$GPVTG,317.42,T,,M,051.910,N,096.138,K,A*37
$GPGGA,000235.00,4047.18935712,N,00237.08006194,W,1,05,2.87,+0.00,M,00.000,M,,*58
$GPVTG,324.01,T,,M,034.335,N,063.588,K,A*3B
$GPGGA,000236.00,4047.18854940,N,00237.06914870,W,1,05,2.87,+0.00,M,00.000,M,,*53
$GPVTG,354.44,T,,M,029.984,N,055.530,K,A*37
$GPGGA,000237.00,4047.18798922,N,00237.05818524,W,1,05,2.87,+0.00,M,00.000,M,,*5B
$GPVTG,356.16,T,,M,030.048,N,055.648,K,A*3F
$GPGGA,000238.00,4047.18385905,N,00237.04890554,W,1,05,2.87,+0.00,M,00.000,M,,*5F
$GPVTG,329.65,T,,M,029.406,N,054.460,K,A*3C
$GPGGA,000239.00,4047.17654909,N,00237.04214269,W,1,05,2.87,+0.00,M,00.000,M,,*5B
$GPVTG,305.12,T,,M,032.150,N,059.542,K,A*32
$GPGGA,000240.00,4047.16912658,N,00237.03824327,W,1,05,2.87,+0.00,M,00.000,M,,*57
$GPVTG,291.77,T,,M,028.754,N,053.253,K,A*39
$GPGGA,000241.00,4047.16544414,N,00237.04044230,W,1,05,2.87,+0.00,M,00.000,M,,*5D
$GPVTG,065.59,T,,M,014.549,N,026.945,K,A*33
$GPGGA,000242.00,4047.16369788,N,00237.05134736,W,1,05,2.87,+0.00,M,00.000,M,,*55
$GPVTG,011.90,T,,M,030.475,N,056.440,K,A*32
$GPGGA,000243.00,4047.16249080,N,00237.07022932,W,1,05,2.87,+0.00,M,00.000,M,,*56
$GPVTG,004.81,T,,M,051.816,N,095.963,K,A*3B
$GPGGA,000244.00,4047.16128260,N,00237.08991074,W,1,05,2.87,+0.00,M,00.000,M,,*5C
$GPVTG,004.62,T,,M,053.995,N,099.999,K,A*37
$GPGGA,000245.00,4047.15958038,N,00237.10952900,W,1,05,2.87,+0.00,M,00.000,M,,*52
$GPVTG,006.52,T,,M,053.996,N,100.000,K,A*3D
$GPGGA,000246.00,4047.15768669,N,00237.12911691,W,1,05,2.87,+0.00,M,00.000,M,,*5C
$GPVTG,007.25,T,,M,053.996,N,100.000,K,A*3C
$GPGGA,000247.00,4047.15452907,N,00237.14838859,W,1,05,2.87,+0.00,M,00.000,M,,*56
$GPVTG,012.17,T,,M,053.910,N,099.842,K,A*38
$GPGGA,000248.00,4047.14906637,N,00237.16671444,W,1,05,2.87,+0.00,M,00.000,M,,*59
$GPVTG,021.42,T,,M,053.829,N,099.692,K,A*30
$GPGGA,000249.00,4047.13826220,N,00237.17675579,W,1,05,2.87,+0.00,M,00.000,M,,*54
$GPVTG,054.76,T,,M,047.591,N,088.138,K,A*39
$GPGGA,000250.00,4047.12377602,N,00237.17700100,W,1,05,2.87,+0.00,M,00.000,M,,*5F
$GPVTG,089.26,T,,M,052.121,N,096.529,K,A*3C
$GPGGA,000251.00,4047.10877152,N,00237.17689849,W,1,05,2.87,+0.00,M,00.000,M,,*51
$GPVTG,270.30,T,,M,053.982,N,099.976,K,A*36
$GPGGA,000252.00,4047.09402189,N,00237.18024272,W,1,05,2.87,+0.00,M,00.000,M,,*5E
$GPVTG,080.22,T,,M,053.847,N,099.725,K,A*38
$GPGGA,000253.00,4047.08201064,N,00237.18634858,W,1,05,2.87,+0.00,M,00.000,M,,*5C
$GPVTG,068.88,T,,M,046.327,N,085.797,K,A*33
$GPGGA,000254.00,4047.07512827,N,00237.19556919,W,1,05,2.87,+0.00,M,00.000,M,,*5C
$GPVTG,044.48,T,,M,035.340,N,065.449,K,A*3A
$GPGGA,000255.00,4047.06984216,N,00237.21159709,W,1,05,2.87,+0.00,M,00.000,M,,*58
$GPVTG,023.46,T,,M,047.778,N,088.485,K,A*3C
$GPGGA,000256.00,4047.06375870,N,00237.22886418,W,1,05,2.87,+0.00,M,00.000,M,,*5E
$GPVTG,024.87,T,,M,052.045,N,096.387,K,A*31
$GPGGA,000257.00,4047.06142891,N,00237.24615244,W,1,05,2.87,+0.00,M,00.000,M,,*5B
$GPVTG,010.06,T,,M,048.014,N,088.922,K,A*3A
$GPGGA,000258.00,4047.05878219,N,00237.26365925,W,1,05,2.87,+0.00,M,00.000,M,,*51
$GPVTG,011.25,T,,M,048.812,N,090.401,K,A*31
$GPGGA,000259.00,4047.05159212,N,00237.27786686,W,1,05,2.87,+0.00,M,00.000,M,,*5F
$GPVTG,033.66,T,,M,046.676,N,086.444,K,A*32
$GPGGA,000300.00,4047.03988554,N,00237.28934067,W,1,05,2.87,+0.00,M,00.000,M,,*54
$GPVTG,053.32,T,,M,052.520,N,097.267,K,A*37
$GPGGA,000301.00,4047.02948777,N,00237.30082841,W,1,05,2.87,+0.00,M,00.000,M,,*5A
$GPVTG,049.98,T,,M,048.849,N,090.469,K,A*3A
$GPGGA,000302.00,4047.01892251,N,00237.30870572,W,1,05,2.87,+0.00,M,00.000,M,,*55
$GPVTG,060.46,T,,M,043.690,N,080.915,K,A*34
$GPGGA,000303.00,4047.00732426,N,00237.30966847,W,1,05,2.87,+0.00,M,00.000,M,,*5B
$GPVTG,086.39,T,,M,041.810,N,077.432,K,A*30
$GPGGA,000304.00,4046.99289464,N,00237.30692297,W,1,05,2.87,+0.00,M,00.000,M,,*5D
$GPVTG,278.23,T,,M,052.454,N,097.144,K,A*3C
$GPGGA,000305.00,4046.97790410,N,00237.30694360,W,1,05,2.87,+0.00,M,00.000,M,,*53
$GPVTG,089.94,T,,M,053.932,N,099.881,K,A*3E
$GPGGA,000306.00,4046.96295926,N,00237.30872234,W,1,05,2.87,+0.00,M,00.000,M,,*5F
$GPVTG,084.83,T,,M,053.987,N,099.983,K,A*38
$GPGGA,000307.00,4046.94818517,N,00237.31211795,W,1,05,2.87,+0.00,M,00.000,M,,*5D
$GPVTG,080.09,T,,M,053.958,N,099.930,K,A*34
$GPGGA,000308.00,4046.93398507,N,00237.31849083,W,1,05,2.87,+0.00,M,00.000,M,,*50
$GPVTG,071.16,T,,M,053.979,N,099.968,K,A*3A
$GPGGA,000309.00,4046.92024379,N,00237.32641227,W,1,05,2.87,+0.00,M,00.000,M,,*52
$GPVTG,066.34,T,,M,053.975,N,099.962,K,A*3A
$GPGGA,000310.00,4046.90674480,N,00237.33504313,W,1,05,2.87,+0.00,M,00.000,M,,*5F
$GPVTG,064.08,T,,M,053.997,N,100.003,K,A*34
$GPGGA,000311.00,4046.89334291,N,00237.34372812,W,1,05,2.87,+0.00,M,00.000,M,,*5B
$GPVTG,063.78,T,,M,053.749,N,099.542,K,A*38
$GPGGA,000312.00,4046.88359124,N,00237.35099539,W,1,05,2.87,+0.00,M,00.000,M,,*5C
$GPVTG,060.47,T,,M,040.322,N,074.676,K,A*3B
$GPGGA,000313.00,4046.88053265,N,00237.35334414,W,1,05,2.87,+0.00,M,00.000,M,,*58
$GPVTG,059.73,T,,M,012.741,N,023.597,K,A*3E
$GPGGA,000314.00,4046.88053265,N,00237.35334414,W,1,05,2.87,+0.00,M,00.000,M,,*5F
$GPVTG,059.73,T,,M,012.741,N,023.597,K,A*3E
$GPGGA,000315.00,4046.88053265,N,00237.35334414,W,1,05,2.87,+0.00,M,00.000,M,,*5E
$GPVTG,059.73,T,,M,012.741,N,023.597,K,A*3E
$GPGGA,000316.00,4046.88053265,N,00237.35334414,W,1,05,2.87,+0.00,M,00.000,M,,*5D
$GPVTG,059.73,T,,M,012.741,N,023.597,K,A*3E
$GPGGA,000317.00,4046.88053265,N,00237.35334414,W,1,05,2.87,+0.00,M,00.000,M,,*5C
$GPVTG,059.73,T,,M,012.741,N,023.597,K,A*3E
$GPGGA,000318.00,4046.88053265,N,00237.35334414,W,1,05,2.87,+0.00,M,00.000,M,,*53
$GPVTG,059.73,T,,M,012.741,N,023.597,K,A*3E
$GPGGA,000319.00,4046.88053265,N,00237.35334414,W,1,05,2.87,+0.00,M,00.000,M,,*52
$GPVTG,059.73,T,,M,012.741,N,023.597,K,A*3E
